"id","name","website","established","isOrganic","status","statusDisplay","createDate","updateDate","streetAddress","locality","region","postalCode","latitude","longitude","isPrimary","inPlanning","isClosed","openToPublic","locationType","locationTypeDisplay","countryIsoCode","displayName","isoThree","numberCode","description","phone","yearOpened","images__icon","images__medium","images__large","hoursOfOperation","extendedAddress","yearClosed","mailingListUrl"
"ivXuST","Brauhaus am Lohberg","http://www.brauhaus-wismar.de/","1995","N","verified","Verified","2012-01-03 02:41:33","2014-07-23 19:11:34","Kleine Hohe Str. 15","Wismar","Mecklenburg-Vorpommern","23966","53.895343","11.461131","Y","N","N","Y","micro","Micro Brewery","DE","Germany","DEU","276","","","","","","","","","",""
"tAo1LY","Brauhaus am Markt","http://brauhausammarkt.jimdo.com/","","N","verified","Verified","2012-01-03 02:41:33","2014-07-23 19:11:34","Stiftsplatz 2","Kaiserslautern","Rheinland-Palatinate","67655","49.444168","7.771493","N","N","N","Y","micro","Micro Brewery","DE","Germany","DEU","276","","","","","","","","","",""
"sysVGG","Brauhaus am Schlössle","http://www.brauhaus-am-schloessle.de/","2007","N","verified","Verified","2012-01-03 02:41:33","2014-07-23 19:11:34","Backnanger Straße 78","Sulzbach an der Murr","Baden-Württemberg","71560","49.003998","9.496325","N","N","N","Y","micro","Micro Brewery","DE","Germany","DEU","276","","","","","","","","","",""
"ps8MZO","Brauhaus am Waldschlösschen","http://www.waldschloesschen.de/","1836","N","verified","Verified","2012-01-03 02:41:33","2014-07-23 19:11:34","Am Brauhaus 8b","Dresden","Sachsen","1099","51.0675565","13.7781047","Y","N","N","Y","micro","Micro Brewery","DE","Germany","DEU","276","Brauhaus am Waldschlösschen is a traditional restaurant for the whole family, a brewery experience and a cocktail bar.    The pleasant atmosphere and cosy hospitality simply demand that you stay awhile. In addition to the typical fare of a brewery, you can enjoy both classics of home-style cooking and light Mediterranean dishes. Outstanding live musicians provide for your evening entertainment, and monthly events round off the Brauhaus calendar. The children, furthermore, can look forward to some fantastic surprises …","+49 351 - 652 39 00","1836","","","","","","",""
"jw2viZ","Brauhaus Bohnsdorf","http://www.brauhaus-bohnsdorf.com/","2008","N","verified","Verified","2012-01-03 02:41:33","2014-07-23 19:11:34","Buntzelstrasse 89 Bohnsdorf","Berlin","Berlin","12526","52.401995","13.56507","N","N","N","Y","micro","Micro Brewery","DE","Germany","DEU","276","","","","","","","","","",""
"EDRBaP","Brauhaus Bönnsch","","","N","verified","Verified","2012-01-03 02:41:33","2014-07-23 19:11:34","Sterntorbrücke 4","Bonn","Nordrhein-Westfalen","D-53111","50.703131","7.121055","N","N","N","Y","micro","Micro Brewery","DE","Germany","DEU","276","","","","","","","","","",""
"fTKNfx","Brauhaus Castel","http://www.brauhaus-castel.de/","1990","N","verified","Verified","2012-01-03 02:41:33","2014-07-23 19:11:34","Otto-Suhr Ring 27","Mainz-Kastel","Hesse","55252","50.01748","8.292084","Y","N","N","Y","brewpub","Brewpub","DE","Germany","DEU","276","","","","","","","","","",""
"tICUo1","Brauhaus Ehrstein","http://www.brauhaus-ehrstein.de/","","N","verified","Verified","2012-01-03 02:41:33","2014-07-23 19:11:34","Im Handschuhteich 3","Hinterweidenthal","Rhineland-Palatinate","66999","49.196888","7.749332","Y","N","N","Y","micro","Micro Brewery","DE","Germany","DEU","276","","","","","","","","","",""
"UI6I9b","Brauhaus Ernst August","http://www.brauhaus.net/","1986","N","verified","Verified","2012-01-03 02:41:33","2014-07-23 19:11:34","Schmiedestraße 13","Hannover","Lower Saxony","30159","52.372278","9.738157","Y","N","N","Y","micro","Micro Brewery","DE","Germany","DEU","276","","","","","","","","","",""
"9kidXn","Brauhaus Espelkamp","http://www.brauhaus-espelkamp.de/","","N","verified","Verified","2012-01-03 02:41:33","2014-07-23 19:11:34","General-Bishop-Sraße 16","Espelkamp","North Rhine-Westphalia","32339","52.387114","8.622368","N","N","N","Y","micro","Micro Brewery","DE","Germany","DEU","276","","","","","","","","","",""
"D5Xgrq","Brauhaus Eutin","http://www.brauhaus-eutin.de/","1999","N","verified","Verified","2012-01-03 02:41:33","2014-07-23 19:11:34","Markt 11","Eutin","Schlewsig-Holstein","23701","54.136689","10.616788","N","N","N","Y","brewpub","Brewpub","DE","Germany","DEU","276","","","","","","","","","",""
"SBrAip","Brauhaus Faust","","","N","verified","Verified","2012-01-03 02:41:33","2014-07-23 19:11:34","Hauptstrae 219","Miltenberg","Bayern","","49.69929","9.24923","Y","N","N","Y","micro","Micro Brewery","DE","Germany","DEU","276","","49-(0)9371-/-9713-0","","","","","","","",""
"kFMvGK","Brauhaus Frankenberger","","2009","N","verified","Verified","2012-01-03 02:41:33","2014-07-23 19:11:34","Lothringerstrasse 112","Aachen","North Rhine-Westphalia","52070","50.76939","6.10054","Y","N","N","Y","micro","Micro Brewery","DE","Germany","DEU","276","","","","","","","","","",""
"kdDxQu","Brauhaus Friedrichroda","","1989","N","verified","Verified","2012-01-03 02:41:33","2014-07-23 19:11:34","Bachstraße 14","Friedrichroda","Hessen","D-99894","50.856241","10.639634","N","N","N","Y","micro","Micro Brewery","DE","Germany","DEU","276","","","","","","","","","",""
"bVrLGO","Brauhaus Georgbræu","http://www.georgbraeu.de/","1991","N","verified","Verified","2012-01-03 02:41:33","2014-07-23 19:11:34","Spreeufer 4","Berlin","Berlin","10178","52.51646","13.405201","Y","N","N","Y","micro","Micro Brewery","DE","Germany","DEU","276","","","","","","","","","",""
"sMEWAk","Brauhaus Goldener Engel","http://www.brauhausgoldenerengel.de/","2007","N","verified","Verified","2012-01-03 02:41:33","2014-07-23 19:11:34","Neisser Straße 1","Ingelheim","Rheinland-Pfalz","55218","49.970295","8.059935","N","N","N","Y","micro","Micro Brewery","DE","Germany","DEU","276","","","","","","","","","",""
"vQb0mg","Brauhaus Goslar","http://www.brauhaus-goslar.de/","2004","N","verified","Verified","2012-01-03 02:41:33","2014-07-23 19:11:34","An der Abzucht 1a","Goslar","Lower Saxony","38640","51.907319","10.436507","Y","N","N","Y","micro","Micro Brewery","DE","Germany","DEU","276","","","","","","","","","",""
"2WxaR0","Brauhaus Grünstadt","","","N","verified","Verified","2012-01-03 02:41:33","2014-07-23 19:11:34","Turnstraße 7","Grünstadt","Rheinland-Pfalz","67269","49.561538","8.164807","N","N","N","Y","micro","Micro Brewery","DE","Germany","DEU","276","","","","","","","","","",""
"fmeNDi","Brauhaus Hartmannsdorf GmbH","http://www.braha.de/","","N","verified","Verified","2012-01-03 02:41:33","2014-07-23 19:11:34","Chemnitzer Straße 5","Hartmannsdorf","","09232","50.886344","12.802208","Y","N","N","Y","micro","Micro Brewery","DE","Germany","DEU","276","","","","","","","","","",""
"mGMxmW","Brauhaus in Spandau","","1994","N","verified","Verified","2012-01-03 02:41:33","2014-07-23 19:11:34","Neuendorfer Straße 1","Spandau","Berlin","D-13585","52.540806","13.206135","N","N","N","Y","micro","Micro Brewery","DE","Germany","DEU","276","","","","","","","","","",""
"fUzzT8","Dsseldorf","","","N","verified","Verified","2012-01-03 02:41:33","2014-07-23 19:11:34","Niederkasseler Strae 104","Dsseldorf","Nordrhein-Westfalen","","51.24044","6.75157","Y","N","N","N","micro","Micro Brewery","DE","Germany","DEU","276","","49-(0)211-/-570129","","","","","","","",""
"HoincZ","Konstanz","","","","verified","Verified","2012-01-03 02:41:33","2014-07-23 19:11:34","Konradigasse 2","Konstanz","Baden-Wrttemberg","","47.66508","9.175","N","N","N","N","micro","Micro Brewery","DE","Germany","DEU","276","","49-(0)7531-/-25045","","","","","","","",""
"X7fpqb","Brauhaus Johann Friedrich Irle GmbH","","1693","N","verified","Verified","2012-01-03 02:41:33","2014-07-23 19:11:34","Hauptstraße 18","Siegen","Nordrhein-Westfalen","D-57074","50.871101","8.061158","N","N","N","Y","micro","Micro Brewery","DE","Germany","DEU","276","","","","","","","","","",""
"l3wQR8","Brauhaus Jupiter","http://www.brauhausjupiter.de/","","N","verified","Verified","2012-01-03 02:41:33","2014-07-23 19:11:34","Keltergasse 21","Sinsheim-Steinsfurt","Baden-Württemberg","74889","49.239208","8.907043","Y","N","N","Y","brewpub","Brewpub","DE","Germany","DEU","276","","","","","","","","","",""
"ou0zOE","Brauhaus Kloster Machern","http://www.brauhaus-kloster-machern.de/","","N","verified","Verified","2012-01-03 02:41:33","2014-07-23 19:11:34","An der Zeltinger Brücke","Bernkastel-Wehlen","Rheinland-Pfalz","54470","49.914305","7.06984","N","N","N","Y","brewpub","Brewpub","DE","Germany","DEU","276","","","","","","","","","",""
"YwkMHV","Brauhaus Kühler Krug","","2002","N","verified","Verified","2012-01-03 02:41:33","2014-07-23 19:11:34","Wilhelm-Baur-Straße 3a","Karlsruhe","Baden-Württemberg","D-76135","49.018225","8.414965","N","N","N","Y","micro","Micro Brewery","DE","Germany","DEU","276","","","","","","","","","",""
"7cK7Z8","Brauhaus Mitte","http://www.brauhaus-mitte.de/","","N","verified","Verified","2012-01-03 02:41:33","2014-07-23 19:11:34","Karl-Liebknecht-Straße 13","Berlin","Berlin","10178","52.522185","13.408885","N","N","N","Y","micro","Micro Brewery","DE","Germany","DEU","276","","","","","","","","","",""
"Dpa9Pp","Brauhaus Müritz","http://www.brauhaus-mueritz.de/","2008","N","verified","Verified","2012-01-03 02:41:33","2014-07-23 19:11:34","Am Tiefwarensee 1","Waren","","17192","53.51094","12.78299","Y","N","N","Y","micro","Micro Brewery","DE","Germany","DEU","276","","","","","","","","","",""
"RX3n5Q","Brauhaus Obermühle","","2001","N","verified","Verified","2012-01-03 02:41:33","2014-07-23 19:11:34","Gebrüder-Wahl-Strasse 19","Braunfels","Sachsen","D-35619","50.542843","8.510667","N","N","N","Y","micro","Micro Brewery","DE","Germany","DEU","276","","","","","","","","","",""
"4VZysG","Brauhaus Onuma","","","N","verified","Verified","2012-01-03 02:41:33","2014-07-23 19:11:34","Onuma","Onuma","Hokkaido","","43.454679","144.114456","Y","N","N","Y","micro","Micro Brewery","JP","Japan","JPN","392","","81-0138-67-2227","","","","","","","",""
"lsVvbw","Brauhaus Pforzheim","http://www.brauhaus-pforzheim.de/","1889","N","verified","Verified","2012-01-03 02:41:33","2014-07-23 19:11:34","St.Georgen Steige 12","","Pforzheim","75175","48.886764","8.706501","Y","N","N","Y","micro","Micro Brewery","DE","Germany","DEU","276","","","","","","","","","",""
"Hyyhug","Brauhaus Pirna Zum Giesser","http://www.brauhaus-pirna.de/","1998","N","verified","Verified","2012-01-03 02:41:33","2014-07-23 19:11:34","Basteistraße 60","Pirna-Copitz, Saxony","Sachsen","01796","50.956621","13.952654","N","N","N","Y","micro","Micro Brewery","DE","Germany","DEU","276","","","","","","","","","",""
"UU1oEt","Brauhaus Sacher","http://www.brauhaus-sacher.de/","2004","N","verified","Verified","2012-01-03 02:41:33","2014-07-23 19:11:34","Hertichstraße 56","Leonberg","Baden-Württemberg","71229","48.786636","8.999978","N","N","N","Y","micro","Micro Brewery","DE","Germany","DEU","276","","","","","","","","","",""
"unx1hA","Brauhaus Schillerbad GmbH","","1994","N","verified","Verified","2012-01-03 02:41:33","2014-07-23 19:11:34","Jokuschstraße 3","Lüdenscheid","Nordrhein-Westfalen","D-58511","51.213745","7.63174","N","N","N","Y","micro","Micro Brewery","DE","Germany","DEU","276","","","","","","","","","",""
"gpIn1h","Brauhaus Sion","","","N","verified","Verified","2012-01-03 02:41:33","2014-07-23 19:11:34","Unter Taschenmacher 5-7","Kln","Nordrhein-Westfalen","","50.93937","6.95935","Y","N","N","Y","micro","Micro Brewery","DE","Germany","DEU","276","","49-(0)221-/-2578540","","","","","","","",""
"6bp6J2","Brauhaus Stadtkrug","http://www.stadtkrug-ueckermuende.de/","","N","verified","Verified","2012-01-03 02:41:33","2014-07-23 19:11:34","Markt 3/4","Ueckermünde","Mecklenburg-Vorpommern","17373","53.73559","14.047765","Y","N","N","Y","micro","Micro Brewery","DE","Germany","DEU","276","","","","","","","","","",""
"Kvwj49","Brauhaus Steinfeld","","2008","N","verified","Verified","2012-01-03 02:41:33","2014-07-23 19:11:34","Große Straße 14","Steinfeld (Oldenburg)","Niedersachsen","D-49439","52.586863","8.217186","N","N","N","Y","micro","Micro Brewery","DE","Germany","DEU","276","","","","","","","","","",""
"VbvIxS","Brauhaus Stephanus","http://www.brauhausstephanus.de/","1990","N","verified","Verified","2012-01-03 02:41:33","2014-07-23 19:11:34","Overhagenweg 1","Coesfeld","North Rhine-Westphalia","48653","51.93701","7.156428","Y","N","N","Y","brewpub","Brewpub","DE","Germany","DEU","276","","","","","","","","","",""
"J91bB8","Brauhaus Sternen","","","N","verified","Verified","2012-01-03 02:41:33","2014-07-23 19:11:34","Hohenzornstrasse 2","Frauenfeld","","","47.5584694","8.9005734","Y","N","N","Y","micro","Micro Brewery","CH","Switzerland","CHE","756","","41-052-728-99-09","","","","","","","",""
"oKER8M","Brauhaus Stiefel-Jürgens","http://www.stiefel-juergens.de/","1680","N","verified","Verified","2012-01-03 02:41:33","2014-07-23 19:11:34","Hühlstr. 4-6","Beckum","","59269","51.757955","8.04231","Y","N","N","Y","micro","Micro Brewery","DE","Germany","DEU","276","","","","","","","","","",""
"q9IxZG","Brauhaus Südstern","http://www.brauhaus-suedstern.de/","2001","N","verified","Verified","2012-01-03 02:41:33","2014-07-23 19:11:34","Hasenheide 69","Berlin","Berlin","10967","52.488611","13.410513","Y","N","N","Y","micro","Micro Brewery","DE","Germany","DEU","276","","","","","","","","","",""
"w7m2V1","Brauhaus Trotzenburg","http://www.brauhaus-trotzenburg.de/","","N","verified","Verified","2012-01-03 02:41:33","2014-07-23 19:11:34","Tiergartenallee 6","Rostock","Mecklenburg-Vorpommern","18059","54.079913","12.087807","N","N","N","Y","micro","Micro Brewery","DE","Germany","DEU","276","","","","","","","","","",""
"f2bufj","Bräuhaus Ummendorf","","1870","N","verified","Verified","2012-01-03 02:41:33","2014-07-23 19:11:34","Bachstraße 10","Ummendorf","Baden-Württemberg","D-88444","48.063309","9.83244","N","N","N","Y","micro","Micro Brewery","DE","Germany","DEU","276","","","","","","","","","",""
"9we9d5","Brauhaus Urfels GmbH","","","N","verified","Verified","2012-01-03 02:41:33","2014-07-23 19:11:34","Römerstraße 109","Walsum","Nordrhein-Westfalen","","51.533025","6.70829","N","N","N","Y","micro","Micro Brewery","DE","Germany","DEU","276","","","","","","","","","",""
"hIOu6r","Brauhaus Weltenbummler","","2003","N","verified","Verified","2012-01-03 02:41:33","2014-07-23 19:11:34","Sebastian-Kneipp Straße 6","Bad Gottleuba-Berggießhübel","Sachsen","D-01818","50.928181","13.45681","N","N","N","Y","micro","Micro Brewery","DE","Germany","DEU","276","","","","","","","","","",""
"xRb3Is","Brauhaus Weyhausen","http://www.hotel-brauhaus.de/","","N","verified","Verified","2012-01-03 02:41:33","2014-07-23 19:11:34","Bokensdorfer Straße 2","Weyhausen","Niedersachsen","38554","52.462594","10.713729","N","N","N","Y","micro","Micro Brewery","DE","Germany","DEU","276","","","","","","","","","",""
"oOlTlB","Brauhaus Wiesenmühle","","1990","N","verified","Verified","2012-01-03 02:41:33","2014-07-23 19:11:34","Wiesenmühlenstraße 13","Fulda","Hesse","D-36037","50.55356","9.674695","N","N","N","Y","micro","Micro Brewery","DE","Germany","DEU","276","","","","","","","","","",""
"GLphZ4","Brauhaus Wittenberg","http://www.brauhaus-wittenberg.de/","1999","N","verified","Verified","2012-01-03 02:41:33","2014-07-23 19:11:34","Markt 6","Lutherstadt Wittenberg","Sachsen-Anhalt","","51.866149","12.643824","N","N","N","Y","brewpub","Brewpub","DE","Germany","DEU","276","","","","","","","","","",""
"baONtD","Brauhaus Zils","http://www.brauhaus-zils.de/","1896","N","verified","Verified","2012-01-03 02:41:33","2014-07-23 19:11:34","Waldstrasse 1","Naurath","Rheinland-Pfalz","54340","49.808271","6.764987","N","N","N","Y","micro","Micro Brewery","DE","Germany","DEU","276","","","","","","","","","",""
"OCEjlN","Brauhaus zu Röglitz","http://www.brauhaus-zu-roeglitz.de/","","N","verified","Verified","2012-01-03 02:41:33","2014-07-23 19:11:34","Röglitzer Hauptstraße 40","","Schkopau","06258","51.39025","12.04188","Y","N","N","Y","micro","Micro Brewery","DE","Germany","DEU","276","","","","","","","","","",""
"kRIRLc","Brauhaus Zum Löwen","","1992","N","verified","Verified","2012-01-03 02:41:33","2014-07-23 19:11:34","Kornmarkt 3","Mühlhausen","Thüringen","D-99974","51.208363","10.457035","N","N","N","Y","micro","Micro Brewery","DE","Germany","DEU","276","","","","","","","","","",""
"zhO2k0","Brauhaus zum Ritter","http://www.brauhaus-zum-ritter.de/","1997","N","verified","Verified","2012-01-03 02:41:33","2014-07-23 19:11:34","Schlossplatz 1","Schwetzingen","Baden-Württemberg","68723","42.28619","-97.193235","Y","N","N","Y","micro","Micro Brewery","DE","Germany","DEU","276","","","","","","","","","",""
"GyTgea","Brauhaus zur Post","http://www.brauhaus-zur-post.de/","","N","verified","Verified","2012-01-03 02:41:33","2014-07-23 19:11:34","Neumayerring 45","Frankenthal","Rhineland-Palatinate","67227","49.534657","8.350637","Y","N","N","Y","brewpub","Brewpub","DE","Germany","DEU","276","","","","","","","","","",""
"1D8Zd9","Brauhaus Zwickau","http://www.brauhaus-zwickau.de/","2001","N","verified","Verified","2012-01-03 02:41:33","2014-07-23 19:11:34","Peter-Breuer-straße 12","Zwickau","Sachsen","08056","50.705986","12.497355","N","N","N","Y","micro","Micro Brewery","DE","Germany","DEU","276","","","","","","","","","",""
"mlcTPZ","Brauhaus Zwiebel","http://www.brauhaus-zwiebel.de/","1993","N","verified","Verified","2012-01-03 02:41:33","2014-07-23 19:11:34","Ulricherstr 24","Soest","North Rhine-Westphalia","59494","51.568662","8.107626","N","N","N","Y","brewpub","Brewpub","DE","Germany","DEU","276","","","","","","","","","",""
"uUd29P","Brauhof Wilshaus","http://www.brauhof-wilshaus.de/","2001","N","verified","Verified","2012-01-03 02:41:33","2014-07-23 19:11:34","Baumstraße 46","Hamm","North Rhine-Westphalia","59071","51.675241","7.875594","N","N","N","Y","micro","Micro Brewery","DE","Germany","DEU","276","","","","","","","","","",""
"QWYlpK","Braumanufaktur Forsthaus Templin","http://www.braumanufaktur.de/","2003","N","verified","Verified","2012-01-03 02:41:33","2014-07-23 19:11:34","Templiner Straße 102","Potsdam","Brandenburg","14473","52.383877","13.074271","N","N","N","Y","micro","Micro Brewery","DE","Germany","DEU","276","","","","","","","","","",""
"qj5Vp8","Brauscheune Rumpelstilz","http://www.rumpelstilz-brauscheune.de/","","N","verified","Verified","2012-01-03 02:41:33","2014-07-23 19:11:34","Dorfstraße 19","Krummenhagen","Mecklenburg-Vorpommern","18442","54.224549","12.979525","N","N","N","Y","micro","Micro Brewery","DE","Germany","DEU","276","","","","","","","","","",""
"aNxqXp","","","","","deleted","Deleted","2012-01-03 02:41:33","2014-07-23 19:11:34","","","Mecklenburg-Vorpommern","","53.89747","12.503205","N","N","N","Y","micro","Micro Brewery","DE","Germany","DEU","276","","","","","","","","","",""
"cpgM4F","Braustolz Brauerei","http://www.braustolz.de/","1868","N","verified","Verified","2012-01-03 02:41:33","2014-07-23 19:11:34","Am Feldschlößchen 18","","Chemnitz","D-09116","50.798324","12.862028","Y","N","N","Y","micro","Micro Brewery","DE","Germany","DEU","276","","","","","","","","","",""
"vSkPKZ","Brausttte der Steirerbrau Aktiengesellschaft","","","N","verified","Verified","2012-01-03 02:41:33","2014-07-23 19:11:34","Reiningshausstrae 1-7","Graz","","","47.068565","15.44318","Y","N","N","Y","micro","Micro Brewery","AT","Austria","AUT","40","","43-0316/502-3545","","","","","","","",""
"vcWWry","Brauwerk Braun & Röth","http://www.brauwerk.info/","2010","N","verified","Verified","2012-01-03 02:41:33","2014-07-23 19:11:34","Saline Karlshalle 11","Bad Kreuznach","Rheinland-Pfalz","55543","49.828","7.85027","N","N","N","Y","micro","Micro Brewery","DE","Germany","DEU","276","","","","","","","","","",""
"jrVt5k","Brävery Brewing","http://www.braverybrewing.com/","2011","N","verified","Verified","2012-01-03 02:41:33","2014-09-29 20:36:28","42705 8th Street W","Lancaster","California","93534","34.6602274","-118.1456132","Y","N","N","Y","micro","Micro Brewery","US","United States","USA","","We are a micro-brewery that crafts adventurous, memorable, and delicious beers for our community.","661-951-4677","","https://s3.amazonaws.com/brewerydbapi/brewery/MNADKT/upload_bWgu1o-icon.png","https://s3.amazonaws.com/brewerydbapi/brewery/MNADKT/upload_bWgu1o-medium.png","https://s3.amazonaws.com/brewerydbapi/brewery/MNADKT/upload_bWgu1o-large.png","Thu:  4:00pm - 10:00pm Fri:  4:00pm - 10:00pm Sat:  2:00pm - 10:00pm Sun:  12:00pm - 7:00pm  Thu - Fri:4:00 pm - 10:00 pm  Sat:2:00 pm - 10:00 pm  Sun:12:00 pm - 7:00 pm","","",""
"y0too2","Bravo Zulu Brewing","http://www.bravozulubrewing.com/","2013","N","verified","Verified","2012-01-03 02:41:33","2014-09-29 20:36:28","6060 Us Highway 31","N Williamsburg","Michigan","49690","44.7749272","-85.4994052","Y","N","N","Y","micro","Micro Brewery","US","United States","USA","","Bravo Zulu Brewing is a production brewery dedicated to patriots who serve their community and country.","(231) 943-1459","2013","https://s3.amazonaws.com/brewerydbapi/brewery/KZHVw2/upload_QrEGU0-icon.png","https://s3.amazonaws.com/brewerydbapi/brewery/KZHVw2/upload_QrEGU0-medium.png","https://s3.amazonaws.com/brewerydbapi/brewery/KZHVw2/upload_QrEGU0-large.png","Mon:  1:00pm - 2:00am Tue:  1:00pm - 2:00am Wed:  1:00pm - 2:00am Thu:  1:00pm - 2:00am Fri:  1:00pm - 2:00am Sat:  1:00pm - 2:00am Sun:  12:00pm - 12:00am  Mon - Sat: 1:00 pm - 2:00 am  Sun: 12:00 pm - 12:00 am","","",""
"XmTDU0","Bravo! Restaurant and Cafe","http://bravokalamazoo.com/","","N","verified","Verified","2012-01-03 02:41:33","2014-07-23 19:11:34","5402 Portage Road","Kalamazoo","Michigan","49002","42.2385078","-85.5601469","Y","N","N","Y","brewpub","Brewpub","US","United States","USA","","Our Bravo! Handcrafted beer is made in-house by our award winning chefs. We are one of the only restaurants in Kalamazoo to brew their own beer. We brew beer in small batches using natural ingredients. We never use additives or extracts. Our slow fermentation and use of all grains create the natural malt flavors of high-quality beers. Our beers have refreshing and crisp flavors which our Chef's enjoy pairing with our menu offerings.","269-344-7700","","https://s3.amazonaws.com/brewerydbapi/brewery/aJuafi/upload_lruJLp-icon.png","https://s3.amazonaws.com/brewerydbapi/brewery/aJuafi/upload_lruJLp-medium.png","https://s3.amazonaws.com/brewerydbapi/brewery/aJuafi/upload_lruJLp-large.png","","","",""
"A6C1dR","Bray's Brewpub And Eatery","http://braysbrewpub.com/","1995","N","verified","Verified","2012-01-03 02:41:33","2014-07-23 19:11:34","678 Roosevelt Trl","Naples","Maine","04055","43.9572916","-70.56193","Y","N","N","Y","brewpub","Brewpub","US","United States","USA","","In a Victorian farmhouse, in the heart of the Lakes Region of Maine, Bray's Brew Pub & Eatery has been serving up the best food and hand-crafted ales in Naples since 1995.","207-693-6806","1995","https://s3.amazonaws.com/brewerydbapi/brewery/CddOp9/upload_mIlRDp-icon.png","https://s3.amazonaws.com/brewerydbapi/brewery/CddOp9/upload_mIlRDp-medium.png","https://s3.amazonaws.com/brewerydbapi/brewery/CddOp9/upload_mIlRDp-large.png","","","",""
"mPupms","Brays Brewing Co, Inc","http://www.braysbrewpub.com/index1.html","","N","verified","Verified","2012-01-03 02:41:33","2014-07-23 19:11:34","678 Roosevelt Trl","Naples","Maine","04055","43.9572916","-70.56193","Y","N","N","Y","brewpub","Brewpub","US","United States","USA","","","207-693-6806","","","","","","","",""
"iK5kPQ","Brazos Valley Brewing Company","http://brazosvalleybrewery.com/","2013","N","verified","Verified","2012-01-03 02:41:33","2014-09-30 13:43:29","201 W. 1st St","Brenham","Texas","77833","30.1646551","-96.3986938","Y","N","N","Y","micro","Micro Brewery","US","United States","USA","","BVB was founded in 2013 by a five man team of craft brewing enthusiasts. We make high quality craft beers for the people of Texas and have a variety of styles thoughtfully created using our passion for tasteful ales.","979-987-1133","2013","https://s3.amazonaws.com/brewerydbapi/brewery/Kpk4e9/upload_JCSbMF-icon.png","https://s3.amazonaws.com/brewerydbapi/brewery/Kpk4e9/upload_JCSbMF-medium.png","https://s3.amazonaws.com/brewerydbapi/brewery/Kpk4e9/upload_JCSbMF-large.png","","","",""
"OjddwJ","Breaker Brewing Company","http://www.breakerbrewingcompany.com/","2005","N","verified","Verified","2012-01-03 02:41:33","2014-07-23 19:11:34","50 Powell St","Plains","Pennsylvania","18705","41.285266","-75.847067","Y","N","N","Y","micro","Micro Brewery","US","United States","USA","","The idea of The Breaker Brewing Company resulted when long time friends, Chris Miller and Mark Lehman, decided it was time to take their interest and appreciation of fine craft beer to the next level. Their intrigue in the complexity of the brewing process coupled with their quest to make a quality product, led to their decision to start creating their own beer.","570-392-9078","2005","https://s3.amazonaws.com/brewerydbapi/brewery/oxMCya/upload_foHdAI-icon.png","https://s3.amazonaws.com/brewerydbapi/brewery/oxMCya/upload_foHdAI-medium.png","https://s3.amazonaws.com/brewerydbapi/brewery/oxMCya/upload_foHdAI-large.png","","","",""
"13MS5k","Breakside Brewery","http://www.breaksidebrews.com/","2010","N","verified","Verified","2012-01-03 02:41:33","2014-09-29 20:36:29","820 Northeast Dekum St","Portland","Oregon","97211","45.571532","-122.6567911","Y","N","N","Y","brewpub","Brewpub","US","United States","USA","","Breakside Brewery is the invention of Scott Lawrence and Tony Petraglia. Some mutual friends introduced the two after learning they both had a desire to leave their corporate jobs in order to pursue their dream of opening a brew pub. They jumped in head first and committed their minimal financial resources and made it happen.","503-719-6475","2010","https://s3.amazonaws.com/brewerydbapi/brewery/bdjbTZ/upload_n5RZyg-icon.png","https://s3.amazonaws.com/brewerydbapi/brewery/bdjbTZ/upload_n5RZyg-medium.png","https://s3.amazonaws.com/brewerydbapi/brewery/bdjbTZ/upload_n5RZyg-large.png","Sunday: 12-10ish  Monday: 3-10ish  Tuesday: 3-10ish  Wednesday: 3-10ish  Thursday: 3-10ish  Friday: 12-11ish  Saturday: 12-11ish","","",""
"dN5GFB","Breakwater Brewing Company","http://www.breakwaterbrewing.com/","","N","verified","Verified","2012-01-03 02:41:33","2014-07-23 19:11:34","101 N Coast Hwy","Oceanside","California","92054","33.1951283","-117.3790419","Y","N","N","Y","brewpub","Brewpub","US","United States","USA","","Great food and amazing house brews , and 28 guest beers this is just a positive new addition to downtown Oceanside, just blocks from the pier. Perfect for family and friends.","760-433-6064","","","","","","Suite c140","",""
"s0WsY3","Global Headquarters & Tasting Room","http://www.breckbrew.com/","1990","N","verified","Verified","2012-01-03 02:41:33","2014-09-11 10:27:14","471 Kalamath Street","Denver","Colorado","80204","39.7236683","-105.0006015","Y","N","N","Y","production","Production Facility","US","United States","USA","","Breckenridge Brewery was founded in 1990 in Breckenridge, Colorado. In the past two plus decades Breckenridge Brewery has grown from a small 3,000-barrels-a-year brewpub to one of the most successful craft beer and restaurant companies in the nation. It now handcrafts more than 70,000 barrels of fresh beer annually and owns and operates five brewpubs and ale houses in the state of Colorado. For more information visit www.breckbrew.com.","303-623-2739","1990","https://s3.amazonaws.com/brewerydbapi/brewery/IImUD9/upload_EE1aPW-icon.png","https://s3.amazonaws.com/brewerydbapi/brewery/IImUD9/upload_EE1aPW-medium.png","https://s3.amazonaws.com/brewerydbapi/brewery/IImUD9/upload_EE1aPW-large.png","","","",""
"4nwOub","Breckenridge Brewery & Pub","http://www.breckbrewpub.com/","","","verified","Verified","2012-01-03 02:41:33","2014-09-11 10:26:21","600 South Main Street","Breckenridge","Colorado","80424","39.4761913","-106.0438304","N","N","N","Y","brewpub","Brewpub","US","United States","USA","","","970-453-1550","","","","","","","",""
"h7fD42","Breckenridge Colorado Craft","http://www.breckbrew.com/food/breckenridge-colorado-craft","","","verified","Verified","2012-01-03 02:41:33","2014-07-23 19:11:34","2220 Blake Street","Denver","Colorado","80205","39.756297","-104.991249","N","N","N","Y","restaurant","Restaurant/Ale House","US","United States","USA","","","303-297-3644","","","","","","","",""
"JRO1DT","The Ale House, Grand Junction","http://www.breckbrew.com/food/the-ale-house-grand-junction","","","verified","Verified","2012-01-03 02:41:33","2014-07-23 19:11:34","2531 North 12th Street","Grand Junction","Colorado","81501","39.0907673","-108.5527476","N","N","N","Y","restaurant","Restaurant/Ale House","US","United States","USA","","","970-242-7253","","","","","","","",""
"vl6pMu","The Ale House at Amato's,  Denver","http://www.breckbrew.com/food/ale-house-amatos","","","verified","Verified","2012-01-03 02:41:33","2014-07-23 19:11:34","2501 16th St","Denver","Colorado","80211","39.7586246","-105.0091788","N","N","N","Y","restaurant","Restaurant/Ale House","US","United States","USA","","","303-433-9734","","","","","","","",""
"EOsuuz","Breckenridge Brewery & Farmhouse","http://www.breckbrew.com","","","verified","Verified","2012-01-03 02:41:33","2014-09-29 20:36:30","6775 S. Santa Fe","Littleton","Colorado","80120","39.59331","-105.024306","N","Y","Y","N","production","Production Facility","US","United States","USA","","","303.623.2739","","","","","Opening Summer 2015  Visit:  www.breckbrew.com/farmhousebrewery","","",""
"9JWNmr","Brenner Brewing Company","http://brennerbrewing.com/","2009","N","verified","Verified","2012-01-03 02:41:33","2014-08-27 13:22:45","706 S 5th St","Milwaukee","Wisconsin","53204","43.023945","-87.916442","Y","N","N","Y","micro","Micro Brewery","US","United States","USA","","Brenner Brewing Co. is a microbrewery in Milwaukee, Wisconsin. Founder, Mike Brenner was awarded the title Master Brewer after completing a rigorous international training program at the Siebel Institute and the Doemens Akademie.    Brenner's passion for crafting delicious beer and his lifelong devotion to Milwaukee's arts and music scene, has led to the creation of Brenner Brewing's ""12 Ounce Ambassadors."" Each style of beer features the artwork of a local artist and comes with a soundtrack featuring the music of local bands. As Brenner Brewing's distribution expands so does the awareness of Milwaukee's incredible arts scene.    Brenner also opened a 25,000 sq ft arts incubator in the building with the brewery which features a 2,000 sq ft contemporary art gallery and 20 artists' studio spaces. Come visit the brewery, tasting room, and art gallery soon.","(414) 465-8469","","https://s3.amazonaws.com/brewerydbapi/brewery/KBQTlS/upload_bDLl1m-icon.png","https://s3.amazonaws.com/brewerydbapi/brewery/KBQTlS/upload_bDLl1m-medium.png","https://s3.amazonaws.com/brewerydbapi/brewery/KBQTlS/upload_bDLl1m-large.png","Fri:  5:00pm - 10:00pm Sat:  12:00pm - 10:00pm Sun:  12:00pm - 5:00pm  ","","",""
"UKFghU","Brennerei-Distillerie Radermacher","","","N","verified","Verified","2012-01-03 02:41:33","2014-07-23 19:11:34","Spitalstrasse 50","Raeren","Lige","","50.6728226","6.1225394","Y","N","N","Y","micro","Micro Brewery","BE","Belgium","BEL","56","","32-(0)87-85.82.32","","","","","","","",""
"ktgW91","Brevard Brewing Co.","http://www.brevard-brewing.com/","2012","N","verified","Verified","2012-01-03 02:41:33","2014-09-29 20:36:32","63 East Main Street","Brevard","North Carolina","28712","35.2333243","-82.7333116","Y","N","N","Y","micro","Micro Brewery","US","United States","USA","","The world of beer is increasingly one of two extremes.  While large macro-breweries compete to produce the lightest, most flavorless, adjunct laden beers possible, craft breweries strive to out-do one another by making each beer hoppier, bolder, and stronger than the next.  At Brevard Brewing Company, we have set out to give beer lovers the best of both worlds – beer that is both drinkable and flavorful.  We are the only brewery in Western North Carolina to specialize in lagers.     What’s the big deal about lagers? Lagers are cold-fermented and aged over twice as long as ales.  They are more costly to produce, and take more patience to brew. Unlike the big flavors of ales that hide imperfections, lagers demand a higher standard of quality and care, making them a rare find in the craft beer world.  But the result is worth the attention to detail--this painstaking process creates a beer that is clean, smooth, and crisp as opposed to the bold, complex flavor of ales.  The imported German barley, hops, and yeast delivers delicate and refined beers that are delicious and flavorful, yet supremely drinkable.    While German-inspired lagers are my specialty, I will never forget the wonderful contributions that American home brewers have made to the beer world over the past thirty years.  I typically find myself drinking a cold, smooth, Pilsner, but every now and again, my taste buds crave a bold, hoppy American IPA.  This is why Brevard Brewing Company offers American ales in addition to German lagers.  No matter your mood or what you are craving, we have the right beer for you.","","2012","https://s3.amazonaws.com/brewerydbapi/brewery/enoxkn/upload_H1vHPy-icon.png","https://s3.amazonaws.com/brewerydbapi/brewery/enoxkn/upload_H1vHPy-medium.png","https://s3.amazonaws.com/brewerydbapi/brewery/enoxkn/upload_H1vHPy-large.png","Mon:  4:00pm - 10:00pm Tue:  4:00pm - 10:00pm Wed:  4:00pm - 10:00pm Thu:  4:00pm - 10:00pm Fri:  2:00pm - 12:00am Sat:  2:00pm - 12:00am Sun:  2:00pm - 9:00pm  Monday-Thursday:  4:00pm - 10:00pm  Friday & Saturday: 2:00pm - 12:00am  Sunday: 2:00pm - 9:00pm","","",""
"R306Uq","Brew & Brats at Arbor Hill","http://www.brewandbrats.com","2011","N","verified","Verified","2012-01-03 02:41:33","2014-09-29 20:36:32","6461 Route 64","Naples","New York","14512","42.7070333","-77.3802943","Y","N","N","Y","brewpub","Brewpub","US","United States","USA","","Crafted Beer on Tap ""Growlers"" available, Good Ole Fashioned Root Beer on Tap, Specialty Sausages ""Brats"" with fresh baked rolls, Condiments Extraordinair including the Winemasters Wine Based Sauerkrat, and glasses of Arbor Hill wine.","(585) 374-2870","2011","https://s3.amazonaws.com/brewerydbapi/brewery/IC632R/upload_cqSn1m-icon.png","https://s3.amazonaws.com/brewerydbapi/brewery/IC632R/upload_cqSn1m-medium.png","https://s3.amazonaws.com/brewerydbapi/brewery/IC632R/upload_cqSn1m-large.png","Sat:  12:00pm - 9:00pm Sun:  12:00pm - 7:00pm  Sat: 12:00 pm - 9:00 pm  Sun: 12:00 pm - 7:00 pm","","",""
"6dyUqv","Brew Brothers Brewery","http://www.eldoradoreno.com/","","N","verified","Verified","2012-01-03 02:41:33","2014-07-23 19:11:34","Eldorado Hotel Casino","Reno","Nevada","89505","39.527385","-119.813439","Y","N","N","Y","brewpub","Brewpub","US","United States","USA","","Named Best Brewpub in America by Nightclub & Bar magazine, The Brew Brothers offers eight custom microbrews and a creative menu, including gourmet wood-fired pizzas, salads, burgers, ribs, sandwiches, homemade soups and complete dinners. The Brew Brothers Reno brewery was also voted “Best Microbrew, “Best Beer Selection,” and “Best Live Music” in the Best of Reno poll and was named the highest selling brewpub in North America. Catch live bands and DJs nightly.","775-786-5700","","https://s3.amazonaws.com/brewerydbapi/brewery/Y47bEa/upload_EUwHVN-icon.png","https://s3.amazonaws.com/brewerydbapi/brewery/Y47bEa/upload_EUwHVN-medium.png","https://s3.amazonaws.com/brewerydbapi/brewery/Y47bEa/upload_EUwHVN-large.png","","PO Box 3399","",""
"OHxbQf","Brew Crew Inc","http://brewcrew.co","2012","N","verified","Verified","2012-01-03 02:41:33","2014-07-23 19:11:34","11626 Sterling Ave","Riverside","California","92503","33.895437","-117.484886","Y","N","N","Y","micro","Micro Brewery","US","United States","USA","","This fall 2013 the tasting room & brewing production facility will open for our beers.    The Brew Crew is a group of former home brewers.","(951) 286-2739","","https://s3.amazonaws.com/brewerydbapi/brewery/U4VAH8/upload_igkVZP-icon.png","https://s3.amazonaws.com/brewerydbapi/brewery/U4VAH8/upload_igkVZP-medium.png","https://s3.amazonaws.com/brewerydbapi/brewery/U4VAH8/upload_igkVZP-large.png","","Suite G","",""
"sUoofg","Brew Cult","http://brewcult.com/","","N","verified","Verified","2012-01-03 02:41:33","2014-07-23 19:11:34","","Brunswick East","Victoria","3057","-37.769412","144.9804594","Y","N","N","Y","micro","Micro Brewery","AU","Australia","AUS","36","Beer: Production. Consumption. Rinse. Repeat.  Has it really come to this? I want more. I want an experience. I want to believe that there is more.  This is Brewcult…..and I am Hendo – I have chosen to dedicate my life to exploring the diversity of beer through creative production and consumption.  Sometimes extreme.  Sometimes to style.  Always irreverant and fun.  Influenced by popular culture and the people I meet.  You won’t like every Brewcult beer….but you’ll enjoy the experience of trying it.  Have fun. Enjoy the beer.","+61 (0)438 255 253","","https://s3.amazonaws.com/brewerydbapi/brewery/pEWnyS/upload_lW2Rx7-icon.png","https://s3.amazonaws.com/brewerydbapi/brewery/pEWnyS/upload_lW2Rx7-medium.png","https://s3.amazonaws.com/brewerydbapi/brewery/pEWnyS/upload_lW2Rx7-large.png","","PO Box 212","",""
"ixhJ0M","Brew It Up! Personal Brewery and Grill","http://www.brewitup.com/","","N","verified","Verified","2012-01-03 02:41:33","2014-07-23 19:11:34","801 14th Street","Sacramento","California","95814","38.580782","-121.486816","Y","N","Y","N","brewpub","Brewpub","US","United States","USA","","","916-441-3000","","","","","","","",""
"6fsMB9","Brew Link Brewing","http://brewlinkbrewing.com/","2014","N","verified","Verified","2012-01-03 02:41:33","2014-09-05 12:22:07","5778 E Us Highway 40","Plainfield","Indiana","46168","39.6958935","-86.4233015","Y","Y","N","Y","micro","Micro Brewery","US","United States","USA","","Plainfield, Indiana's newest brewery....coming 2014","(317) 408-6970","","https://s3.amazonaws.com/brewerydbapi/brewery/oGtDY0/upload_2vPToM-icon.png","https://s3.amazonaws.com/brewerydbapi/brewery/oGtDY0/upload_2vPToM-medium.png","https://s3.amazonaws.com/brewerydbapi/brewery/oGtDY0/upload_2vPToM-large.png","","","",""
"xb8vJE","Brew Makers","","1995","N","verified","Verified","2012-01-03 02:41:33","2014-07-23 19:11:34","1020 North Rengstorff","Mountain View","California","94043","37.4190937","-122.0933796","Y","N","Y","Y","micro","Micro Brewery","US","United States","USA","","","","1995","","","","","","",""
"ZQKG7N","BREW Pub & Kitchen","http://www.brewpubkitchen.com/","2013","N","verified","Verified","2012-01-03 02:41:33","2014-09-29 20:36:33","17 West College Drive","Durango","Colorado","81301","37.2701925","-107.8819761","Y","N","N","Y","brewpub","Brewpub","US","United States","USA","","We hand craft our own spectacular beers and feature unique artisan beers from other Colorado breweries as well as select wines and spirits.","(970) 259-5959","2013","https://s3.amazonaws.com/brewerydbapi/brewery/if5LkM/upload_aUSnQn-icon.png","https://s3.amazonaws.com/brewerydbapi/brewery/if5LkM/upload_aUSnQn-medium.png","https://s3.amazonaws.com/brewerydbapi/brewery/if5LkM/upload_aUSnQn-large.png","Tue:  11:00am - 11:00pm Wed:  11:00am - 11:00pm Thu:  11:00am - 11:00pm Fri:  11:00am - 11:00pm Sat:  11:00am - 11:00pm Sun:  11:00am - 11:00pm  Tuesday through Sunday from 11am to 11pm","","",""
"6Jgvnk","Brew Rebellion","http://www.brewrebellion.com","2008","N","verified","Verified","2012-01-03 02:41:33","2014-09-29 20:36:34","13444 Cailfornia Street","Yucaipa","California","92399","34.00952","-117.0391112","Y","N","N","Y","micro","Micro Brewery","US","United States","USA","","Andy and Brad have been home brewing for years together and through trial and error have come up with some amazing and tasty brew concoctions. Special recipes like “White Chocolate Raspberry Stout” or the cinnamon and cloves party in your mouth seasonal winter warmer recipe called, “Peace on Earth” or the sitting around the campfire approved S’mores Porter or what about the fruit and honey light taste of “Peach Honey Wheat”.    Brad and Andy have known Ed for some time and the boys knew that an old fart like Ed with a business background made him a good candidate to help them put together a business and marketing plan. Since Ed is a big fan of craft beer, he said, why not? “Let’s build a brewery”.    Brew Rebellion was born.","(951) 907-4844","2008","https://s3.amazonaws.com/brewerydbapi/brewery/ipLG2T/upload_ECS0rk-icon.png","https://s3.amazonaws.com/brewerydbapi/brewery/ipLG2T/upload_ECS0rk-medium.png","https://s3.amazonaws.com/brewerydbapi/brewery/ipLG2T/upload_ECS0rk-large.png","Mon:  4:00pm - 9:00pm Tue:  4:00pm - 9:00pm Wed:  4:00pm - 9:00pm Thu:  4:00pm - 9:00pm Fri:  4:00pm - 9:00pm Sat:  12:00pm - 9:00pm Sun:  9:00am - 6:00pm  Mon - Fri: 4:00 pm - 9:00 pm  Sat: 12:00 pm - 9:00 pm  Sun: 9:00 am - 6:00 pm","","",""
"umHPtz","Brew Wërks Brewing Company","http://brewwerksbrewing.com/","2011","N","verified","Verified","2012-01-03 02:41:33","2014-07-23 19:11:34","20750 High Desert Lane","Bend","Oregon","97701","44.089005","-121.285385","Y","N","N","Y","micro","Micro Brewery","US","United States","USA","","Founded in 2011, our passion for great beer has driven us to carve out a niche wherever possible as we strive to bring our own sense of innovation to a very informed local beer consumer. We recognize that the bar has been set high, and we are excited by the opportunity to earn your admiration amongst so many great breweries.    We strive to make beers that push the boundaries of common conception, bursting with flavors and aromas that encourage brew fans to relish in the lush sensory experience. Unfiltered and unrefined, our lineup is designed to encourage the drinker to embrace change as our robust signature mouth feel stretches the palate beyond its previous expectation.","(541) 306-3118","2011","https://s3.amazonaws.com/brewerydbapi/brewery/dh7I4h/upload_2MQeul-icon.png","https://s3.amazonaws.com/brewerydbapi/brewery/dh7I4h/upload_2MQeul-medium.png","https://s3.amazonaws.com/brewerydbapi/brewery/dh7I4h/upload_2MQeul-large.png","","","",""
"e9VMs6","Brewbaker","http://brewbaker.de/","","N","verified","Verified","2012-01-03 02:41:33","2014-07-23 19:11:34","Arminiusstr. 2-4","Berlin","Berlin","10551","52.527337","13.338805","Y","N","N","Y","micro","Micro Brewery","DE","Germany","DEU","276","","","","","","","","","",""
"ZurjSf","BrewBakers","http://www.brewbakers1.com/","","N","verified","Verified","2012-01-03 02:41:33","2014-07-23 19:11:34","7242 Heil Avenue","Huntington Beach","California","92647","33.722507","-118.001758","Y","N","N","Y","brewpub","Brewpub","US","United States","USA","","","714-596-5506","","","","","","","",""
"CEaXc6","Brewbakers Brewing Co.","http://www.brewbakersbrewingco.com/","","N","verified","Verified","2012-01-03 02:41:33","2014-07-23 19:11:34","219 East Main Street","Visalia","California","93291","36.3300495","-119.290706","Y","N","N","Y","brewpub","Brewpub","US","United States","USA","","","559-627-2739","","","","","","","",""
"oYJLlX","BrewDog Ltd","http://brewdog.com/","2006","N","verified","Verified","2012-01-03 02:41:33","2014-07-23 19:11:34","Unit 1, Kessock Workshops","Fraserburgh","","AB43 8UE","57.64784","-1.934689","Y","N","N","Y","micro","Micro Brewery","GB","United Kingdom","GBR","826","BrewDog is a Scottish craft brewery located in the town of Fraserburgh, Aberdeenshire.    BrewDog was founded in 2006 by friends James Watt and Martin Dickie. The brewery at the Kessock Industrial Estate in Fraserburgh produced its first brew in April 2007. It is Scotland's largest independently owned brewery producing about 120,000 bottles per month for export all over the world.","+44 (0) 1346 519 009","2006","https://s3.amazonaws.com/brewerydbapi/brewery/wfAwfx/upload_tn2qSA-icon.png","https://s3.amazonaws.com/brewerydbapi/brewery/wfAwfx/upload_tn2qSA-medium.png","https://s3.amazonaws.com/brewerydbapi/brewery/wfAwfx/upload_tn2qSA-large.png","","","",""
"Cp589j","Aberdeen","","","","verified","Verified","2012-01-03 02:41:33","2014-09-29 20:36:34","17 Gallowgate","","Aberdeen","AB25 1EB","57.1494892","-2.0977447","N","N","N","Y","tasting","Tasting Room","GB","United Kingdom","GBR","826","","+44 (0) 1224 631 223","","","","","Mon:  12:00pm - 12:00am Tue:  12:00pm - 12:00am Wed:  12:00pm - 12:00am Thu:  12:00pm - 12:00am Fri:  12:00pm - 1:00am Sat:  12:00pm - 1:00am Sun:  12:30pm - 12:00am  Mon - Thurs 12pm to 12am   Fri - Sat 12pm to 1am   Sun 12:30pm to 12am","","",""
"p8nwJA","Edinburgh","","","","verified","Verified","2012-01-03 02:41:33","2014-09-29 20:36:35","143 Cowgate","","Edinburgh","EH1 1JS","55.9483998","-3.1893704","N","N","N","Y","tasting","Tasting Room","GB","United Kingdom","GBR","826","","+44 (0) 1312 206 517","","","","","Mon:  12:00pm - 1:00am Tue:  12:00pm - 1:00am Wed:  12:00pm - 1:00am Thu:  12:00pm - 1:00am Fri:  12:00pm - 1:00am Sat:  12:00pm - 1:00am Sun:  12:30pm - 1:00am  Mon - Sat 12pm to 1am  Sun 12.30pm to 1am","","",""
"RSWkSb","Glasgow","","","","verified","Verified","2012-01-03 02:41:33","2014-09-29 20:36:36","1397 Argyle Street","","Glasgow","G3 8AN","55.8681637","-4.2917879","N","N","N","Y","tasting","Tasting Room","GB","United Kingdom","GBR","826","","+44 (0) 1413 347 175","","","","","Mon:  12:00pm - 11:00pm Tue:  12:00pm - 11:00pm Wed:  12:00pm - 11:00pm Thu:  12:00pm - 11:00pm Fri:  12:00pm - 12:00am Sat:  12:00pm - 12:00am Sun:  12:30pm - 11:00pm  Mon - Thurs 12pm to 11pm  Fri - Sat 12pm to 12am  Sun 12.30pm to 11pm","","",""
"3mFYc2","Camden","","","","verified","Verified","2012-01-03 02:41:33","2014-09-29 20:36:37","113 Bayham Street","Camden Town","London","NW1 0AG","51.5384476","-0.1409304","N","N","N","Y","tasting","Tasting Room","GB","United Kingdom","GBR","826","","+44 02 07284 4626","","","","","Mon:  12:00pm - 11:30pm Tue:  12:00pm - 11:30pm Wed:  12:00pm - 11:30pm Thu:  12:00pm - 11:30pm Fri:  12:00pm - 12:00pm Sat:  12:00pm - 12:00pm Sun:  12:00pm - 10:30pm  Mon - Thurs 12pm to 11.30pm   Fri - Sat 12pm to 12pm   Sun 12pm to 10.30pm","","",""
"g5yMlT","Nottingham","","","","verified","Verified","2012-01-03 02:41:33","2014-09-29 20:36:38","20 - 22 Broad Street","","Nottingham","NG1 3AL","52.9541103","-1.1436979","N","N","N","Y","tasting","Tasting Room","GB","United Kingdom","GBR","826","","+44 (0) 1159 583613","","","","","Sun:  12:00pm - 11:30pm Fri:  12:00pm - 12:00am Sat:  12:00pm - 12:00am  Sun - Thurs 12pm to 11:30pm  Fri - Sat 12pm to 12am","","",""
"IPhAuu","Newcastle","","","","verified","Verified","2012-01-03 02:41:33","2014-09-29 20:36:39","16 Dean Street","","Newcastle Upon Tyne","NE1 1PG","54.9699396","-1.6095017","N","N","N","Y","tasting","Tasting Room","GB","United Kingdom","GBR","826","","+44 (0) 1912 616586","","","","","Sun:  12:00pm - 1:00am Fri:  12:00pm - 2:00am Sat:  12:00pm - 2:00am  Sun - Thurs 12pm to 1am   Fri - Sat 12pm to 2am","","",""
"ujPz4L","Manchester","","","","verified","Verified","2012-01-03 02:41:33","2014-09-29 20:36:40","35 Peter St","","Manchester","M2 5BG","53.4779857","-2.2471641","N","N","N","Y","tasting","Tasting Room","GB","United Kingdom","GBR","826","","+44 (0) 161 832 1922","","","","","Mon:  12:00pm - 1:00am Tue:  12:00pm - 1:00am Wed:  12:00pm - 1:00am Thu:  12:00pm - 1:00am Fri:  12:00pm - 1:00am Sat:  12:00pm - 1:00am Sun:  12:00pm - 12:00am  Mon - Sat 12pm to 1am  Sun 12pm to 12am","","",""
"Qs29uy","Brewer's Alley Restaurant & Brewery","http://www.brewers-alley.com","1996","N","verified","Verified","2012-01-03 02:41:33","2014-07-23 19:11:34","124 North Market Street","Frederick","Maryland","21701","39.4156043","-77.4107676","Y","N","N","Y","brewpub","Brewpub","US","United States","USA","","Welcome to Brewer’s Alley, Frederick, Maryland’s first Brewpub. Brewer’s Alley is proud to continue the long history of beer making in a town known for its deep appreciation of fine fermented spirits.    Brewer’s Alley was located on what is currently South Court Street. Beer Production ceased in 1901 when a large fire consumed the brewery of John Kuhn, who was the last in a long line of brewers to occupy space along the banks of Carroll Creek. For over 153 years, from the very beginning of Frederick County, Brewer’s Alley was a fixture in the social and economic landscape of Frederick. Ninety-five years after leaving Frederick, Brewer’s Alley is back!    Brewer’s Alley’s location at 124 North Market Street is steeped in Frederick history. The first residents of Frederick held a lottery to raise money to build a town hall and market house on this location in 1765, which was completed in 1769. This structure served its purpose for over 100 years and was witness to the birth of Frederick as a city. The Market House spanned the Civil War, including the ransoming of the city by Confederate General Jubal Early.    In 1873, the bustling town of Frederick replaced the Market House with the ""new"" multifunctional offices, and provided space in the rear for the Frederick Farmer’s Market. Later, the rear of the building was replaced by the present parking deck; the first of it’s kind in town.    As the seat of city government the building was witness to Frederick’s political history, and as an opera house and theatre it has been witness to much of Frederick’s social and entertainment history. The building has hosted such diverse events as a Memorial Service for President McKinley in 1901, the Frederick debut of D.W. Griffith’s film ""The Birth of a Nation"", and the Manhattan Opera Company’s production of ""Madame Butterfly"", in 1926. It also hosted the popular American Legion fundraisers immediately after World War I, and the family pleasers the Mykle and Harden Fair Week Road Shows.    Brewer’s Alley has been fortunate in its efforts to preserve the elegance and glory of the old Opera House by being able to engage Salyer Studio Faux to faux decorate some of the original ceiling panels and columns in mimicked old Italian Sienna marble. The beautiful and captivating glass etching work and stained glass seen throughout the building done by Rusty and Sharon Rowland’s Art in Glass Studio complements this fine craftsmanship. Their rendition of the hop vines on the brewery glass and the stain glass panels in the back dinning room was all done by hand and is a joy to behold.    We are most happy to oversee the building’s latest transformation into the state-of-the-art brewery and restaurant. We hope you enjoy the history and ambiance of our location, as well as the brewery and dining experience.    We opened the doors in July of 1996 and have been serving great beers and wonderful meals to the masses ever since.","301-631-0089","1996","https://s3.amazonaws.com/brewerydbapi/brewery/wFeIiC/upload_8Bijgx-icon.png","https://s3.amazonaws.com/brewerydbapi/brewery/wFeIiC/upload_8Bijgx-medium.png","https://s3.amazonaws.com/brewerydbapi/brewery/wFeIiC/upload_8Bijgx-large.png","","","",""
"3Bky4P","Brewer's Art","http://www.belgianbeer.com","","N","verified","Verified","2012-01-03 02:41:33","2014-07-23 19:11:34","1106 N. Charles St.","Baltimore","Maryland","21201","39.302771","-76.616387","Y","N","N","Y","micro","Micro Brewery","US","United States","USA","","Set in a grand Mt. Vernon townhouse, The Brewer's Art offers many temptations for your palate. Our seasonally-influenced menu of European-style country fare features meats, fish, seafood, pasta, and vegetarian offerings.  Dinner is served daily between 5:30pm - 9:00pm (later on Thursdays, Fridays and Saturdays) and light fare is available from 4:00pm - 11:00pm. Our creative pastry chef prepares our homemade desserts. In addition to brewing our fine beers on the premises, we offer a carefully picked selection of beers and fine wines from around the world, and one of Baltimore's best selections of scotches and spirits.","410-547-6925","","https://s3.amazonaws.com/brewerydbapi/brewery/YytkpO/upload_HvoFWy-icon.png","https://s3.amazonaws.com/brewerydbapi/brewery/YytkpO/upload_HvoFWy-medium.png","https://s3.amazonaws.com/brewerydbapi/brewery/YytkpO/upload_HvoFWy-large.png","","","",""
"0j4t2Z","Riverside Point","http://www.brewerkz.com","1997","N","verified","Verified","2012-01-03 02:41:33","2014-09-29 20:36:42","30 Merchant Rd","Singapore","Singapore","058282","1.289129","103.844223","Y","N","N","Y","micro","Micro Brewery","SG","Singapore","SGP","702","Founded in 1997, Singapore’s award-winning microbrewery restaurant, Brewerkz Restaurant & Microbrewery, was the brain-child of US-born Devin Otto Kimble and Daniel Flores, who initially modeled it after similar concepts in the USA and Canada.     The iconic full-service restaurant features high quality American-style food and a full range of premium beers handcrafted on-site from the 10 hl microbrewery attached to the restaurant.    Most notable attraction of the restaurant is the distinctly featured custom-made microbrewery built by Newlands Systems Inc in Abbotsford, BC Canada. Equipped with specially fabricated fermentation tanks that have been designed to minimize floor-space needs, the brewing system produces over 2,500 hl of beer per annum, nearly all of which is drunk at both Brewerkz locations and their sister concept Café Iguana.","+65-6438-7438","1997","https://s3.amazonaws.com/brewerydbapi/brewery/dEjDHI/upload_vXsVwS-icon.png","https://s3.amazonaws.com/brewerydbapi/brewery/dEjDHI/upload_vXsVwS-medium.png","https://s3.amazonaws.com/brewerydbapi/brewery/dEjDHI/upload_vXsVwS-large.png","Mon:  12:00pm - 12:00am Sun:  12:00pm - 12:00am, 12:00pm - 12:00am, 12:00pm - 12:00am, 12:00pm - 12:00am Tue:  12:00pm - 12:00am Wed:  12:00pm - 12:00am Thu:  12:00pm - 12:00am Fri:  12:00pm - 1:00am Sat:  12:00pm - 1:00am  Mon - Thurs & Sun12PM - 12AM  Fri, Sat & PH Eve12PM - 1AM  Public holidayOpen from 12PM","01-05 Riverside Point","",""
"nqAkXm","Brewers Tasting Room","http://www.brewerstastingroom.com","2013","N","verified","Verified","2012-01-03 02:41:33","2014-09-29 20:36:43","11270 4th St N","Saint Petersburg","Florida","33716","27.874373","-82.640223","Y","N","N","Y","nano","Nano Brewery","US","United States","USA","","","(727) 873-3900","2013","https://s3.amazonaws.com/brewerydbapi/brewery/yTHtbR/upload_zOcQ0G-icon.png","https://s3.amazonaws.com/brewerydbapi/brewery/yTHtbR/upload_zOcQ0G-medium.png","https://s3.amazonaws.com/brewerydbapi/brewery/yTHtbR/upload_zOcQ0G-large.png","Tue:  3:00pm - 11:00pm Wed:  3:00pm - 11:00pm Thu:  3:00pm - 11:00pm Fri:  11:00am - 12:00am Sat:  11:00am - 12:00am Sun:  11:00am - 11:00pm  Tue - Thu: 3:00 pm - 11:00 pm  Fri - Sat: 11:00 am - 12:00 am  Sun: 11:00 am - 11:00 pm","","",""
"HpCaNH","Brewers Union Local 180","http://www.brewersunion.com/","","N","verified","Verified","2012-01-03 02:41:33","2014-07-23 19:11:34","48329 East First St","Oakridge","Oregon","97463","43.74797","-122.456846","Y","N","N","Y","brewpub","Brewpub","US","United States","USA","","The Brewers Union Local 180, Oregon's only Real Ale Pub and Brewery, is a blend of the best of the British Public House, the American spirit of adventure, and the natural scenic beauty of Oregon's Cascade Mountains. Situated in the center of Oakridge, which along with it's neighboring city of Westfir are the only cities in Oregon completely surrounded by National Forest, you will find a throwback to when the community gathered regularly to share news, when beer was brewed in the back of the pub and pulled from the cellar out of a cask, and when the weary traveler found a cozy nook and a good meal.","541-782-2024","","https://s3.amazonaws.com/brewerydbapi/brewery/gxt5Wd/upload_WG5xNA-icon.png","https://s3.amazonaws.com/brewerydbapi/brewery/gxt5Wd/upload_WG5xNA-medium.png","https://s3.amazonaws.com/brewerydbapi/brewery/gxt5Wd/upload_WG5xNA-large.png","","PO Box 739","",""
"us0HZH","Brewery 85","http://www.brewery85.com","","N","verified","Verified","2012-01-03 02:41:33","2014-07-25 13:58:56","6 Whitlee Ct","Greenville","South Carolina","29607","34.8036045","-82.3496883","Y","N","N","Y","micro","Micro Brewery","US","United States","USA","","We are a craft microbrewery in Greenville, South Carolina that specializes in marrying Southern culture with craft beer spirit while using traditional German brewing techniques. Prost, Y'all!","(864) 558-0104","","https://s3.amazonaws.com/brewerydbapi/brewery/P9OXR7/upload_hWjovw-icon.png","https://s3.amazonaws.com/brewerydbapi/brewery/P9OXR7/upload_hWjovw-medium.png","https://s3.amazonaws.com/brewerydbapi/brewery/P9OXR7/upload_hWjovw-large.png","","","",""
"u8vOWi","Brewery At Lake Tahoe","http://www.brewerylaketahoe.com/","","N","verified","Verified","2012-01-03 02:41:33","2014-07-23 19:11:34","3542 Lake Tahoe Boulevard South","Lake Tahoe","California","96150","38.94657","-119.961656","Y","N","N","Y","brewpub","Brewpub","US","United States","USA","","","530-544-4369","","","","","","","",""
"WSeCg9","Brewery at Martha's Vineyard","","","N","verified","Verified","2012-01-03 02:41:33","2014-07-23 19:11:34","43 Oak Bluffs Avenue","Oak Bluffs","Massachusetts","02557","41.4576034","-70.5572039","Y","N","Y","Y","micro","Micro Brewery","US","United States","USA","","","","","","","","","","",""
"P9OXR7","Brewery Becker","http://brauereibecker.us/","2014","N","verified","Verified","2012-01-03 02:41:33","2014-09-29 20:36:43","500 W. Main Street","Brighton","Michigan","48116","42.529503","-83.7851236","Y","N","N","Y","micro","Micro Brewery","US","United States","USA","","","(734) 678-3238","2014","","","","Tue:  3:00pm - 10:00pm Wed:  3:00pm - 10:00pm Thu:  3:00pm - 10:00pm Fri:  3:00pm - 11:00pm Sat:  12:00pm - 11:00pm Sun:  12:00pm - 9:00pm  Hours of Operation:  Monday: closed  Tuesday-Thursday: 3pm-10pm  Friday: 3pm-11pm  Saturday: Noon-11pm  Sunday: Noon-9pm  Kitchen closes at 9","","",""
"8mN0pa","Brewery Belle-Vue","","","N","verified","Verified","2012-01-03 02:41:33","2014-07-23 19:11:34","Delaunoystraat 58/60","Molenbeek","Brussel","","50.8529855","4.3302738","Y","N","N","Y","micro","Micro Brewery","BE","Belgium","BEL","56","","32-024-12-44-11","","","","","","","",""
"l65oz1","Brewery Budweiser Budvar","http://www.budvar.cz/","","N","verified","Verified","2012-01-03 02:41:33","2014-07-23 19:11:34","","","Ceske Budejovice","","48.975405","14.479375","Y","N","N","Y","micro","Micro Brewery","CZ","Czech Republic","CZE","203","","","","","","","","","",""
"NPod8S","Brewery Creek Brewing","http://www.brewerycreek.com/","","N","verified","Verified","2012-01-03 02:41:33","2014-07-23 19:11:34","23 Commerce Street","Mineral Point","Wisconsin","53565","42.8605865","-90.177162","Y","N","N","Y","micro","Micro Brewery","US","United States","USA","","Brewery Creek.  It's where we live.  It's where we work.  When we started this project we decided to pursue three businesses.  Just so we wouldn't get bored.  The lodging business includes five rooms at the Inn, and two Cottages on Shake Rag Street.  Then there is the Brewpub Restaurant in the Commerce Street building.  Last but certainly not least is the Brewery Creek Brewing Company, behind the glass doors of the restaurant. Our brewery is a modern, 15-barrel brew house capable of making up to 3,000 barrels of beer per year. I an make ales or lagers, but mostly it has been ales, which tend to have a more complex flavor profile.  I can use a simple one step infusion mash, or more elaborate multi-temperature steps.","1-608-987-3298","","","","","","","",""
"26F7Qm","Brewery DADA","http://www.brewerydada.com/","","N","verified","Verified","2012-01-03 02:41:33","2014-07-23 19:11:34","Reinli","Austin","Texas","78751","30.31885","-97.707944","Y","Y","N","N","micro","Micro Brewery","US","United States","USA","","Brewery DADA has been in the minds of homebrewers Annie and Mercury McCall since they started brewing together in 2007. Their brews are marked by an adventurous spirit of invention and experimentation. They liken their brew style and aesthetic to the tenants of the DADA artistic movement, namely, a very specific absence of definitions and functions aligned with the propensity to collage and combine disparate ephemera.","806-470-0807","","https://s3.amazonaws.com/brewerydbapi/brewery/GQMkBt/upload_KVfcPw-icon.png","https://s3.amazonaws.com/brewerydbapi/brewery/GQMkBt/upload_KVfcPw-medium.png","https://s3.amazonaws.com/brewerydbapi/brewery/GQMkBt/upload_KVfcPw-large.png","","","",""
"c3GFRK","Brewery De Troch","","","N","verified","Verified","2012-01-03 02:41:33","2014-07-23 19:11:34","Langestraat 20","Ternat","Vlaams Brabant","","50.8529256","4.1649426","Y","N","N","Y","micro","Micro Brewery","BE","Belgium","BEL","56","","32-02-582-10-27","","","","","","","",""
"bnVj0y","Brewery Ferment","http://www.breweryferment.com/","2012","N","verified","Verified","2012-01-03 02:41:33","2014-09-29 20:36:44","511 S Union St","Traverse City","Michigan","49684","44.7592126","-85.6237742","Y","N","N","Y","micro","Micro Brewery","US","United States","USA","","Ferment is an inviting, casual, neighborhood brewery that is truly all about the beer. We blend traditional styles and techniques with a new world approach to brewing, influenced by traditions throughout the world while remaining true to Northern Michigan.    We believe in emphasizing our Midwestern roots  This area has ample farmland, and hops grow perfectly here. We aim to make the most of what local growers have to offer, brewing with Northern Michigan ingredients as much as possible. We also have a small menu of unique bar snacks and outside food is welcome. We have five flagship beers on draft along with rotating specialties and bottled conditioned beers. Stop in, have a pint and you will notice the local difference.","(231) 735-8113","2012","https://s3.amazonaws.com/brewerydbapi/brewery/8iY0UW/upload_bZTNUP-icon.png","https://s3.amazonaws.com/brewerydbapi/brewery/8iY0UW/upload_bZTNUP-medium.png","https://s3.amazonaws.com/brewerydbapi/brewery/8iY0UW/upload_bZTNUP-large.png","Mon:  3:00pm - 10:00pm Tue:  3:00pm - 10:00pm Wed:  3:00pm - 10:00pm Thu:  3:00pm - 10:00pm Fri:  3:00pm - 12:00am Sat:  12:00pm - 12:00am Sun:  2:00pm - 7:00pm  Mon - Thu: 3:00 pm - 10:00 pm  Fri: 3:00 pm - 12:00 am  Sat: 12:00 pm - 12:00 am  Sun: 2:00 pm - 7:00 pm","","",""
"EMz3al","Brewery in the Barn","","","N","verified","Verified","2012-01-03 02:41:33","2014-07-23 19:11:34","","Nesopeck","Pennsylvania","","41.052245","-76.219674","Y","N","N","Y","micro","Micro Brewery","US","United States","USA","","","570-336-0400","","","","","","","",""
"qghrkC","Brewery Lupus","http://www.brouwerijlupus.be/","","N","verified","Verified","2012-01-03 02:41:33","2014-07-23 19:11:34","Betekomsesteenweg 76","Aarschot","","3200","50.9894948","4.8184464","Y","N","N","Y","micro","Micro Brewery","BE","Belgium","BEL","56","Brewery Lupus Belgium produces speciality beers of high fermentation on a typical belgian and traditional way. The second bottle conditioned fermentation is crucial in developping these unique belgian speciality beers. The variety between our brands makes sure every beer lover will find his own preference.","0477 69 91 37","","https://s3.amazonaws.com/brewerydbapi/brewery/3u7opD/upload_iHnVUP-icon.png","https://s3.amazonaws.com/brewerydbapi/brewery/3u7opD/upload_iHnVUP-medium.png","https://s3.amazonaws.com/brewerydbapi/brewery/3u7opD/upload_iHnVUP-large.png","","","",""
"T0Qftd","Brewery Ommegang","http://www.ommegang.com/","1997","N","verified","Verified","2012-01-03 02:41:33","2014-09-29 20:36:44","656 County Highway 33","Cooperstown","New York","13326","42.6268786","-74.9452273","Y","N","N","Y","production","Production Facility","US","United States","USA","","In October of 1997, not far from the birthplace of baseball, ground was broken for what was to become America's most unique craft brewery. Based on traditional Belgian farmhouse architecture and set on a former hop farm in upstate New York, Brewery Ommegang was born with the philosophy that truly unique ales must be built from the ground up. Now brewing six award-winning Belgian-style ales, an imaginative range of seasonal and limited edition ales, and offering daily tours and tastings, plus a full calendar of special events, Brewery Ommegang is the place where brewing is an art and partaking is a passion.","607-544-1800","1997","https://s3.amazonaws.com/brewerydbapi/brewery/tCxPtR/upload_kjhlVp-icon.png","https://s3.amazonaws.com/brewerydbapi/brewery/tCxPtR/upload_kjhlVp-medium.png","https://s3.amazonaws.com/brewerydbapi/brewery/tCxPtR/upload_kjhlVp-large.png","11am-6pm (summer hours)  12-5pm (winter hours)","","",""
"NrF8QR","Brewery Rickoli","http://www.breweryrickoli.com/","2012","N","verified","Verified","2012-01-03 02:41:33","2014-09-29 20:36:46","4335 Wadsworth","Wheat Ridge","Colorado","80033","39.7756487","-105.0815258","Y","N","N","Y","micro","Micro Brewery","US","United States","USA","","We are proud to announce the recent opening of Brewery Rickoli, The Premier Brewery in Wheat Ridge Colorado, serving freshly brewed craft beer and offering a relaxed and friendly space to gather. We are located by the Southwest corner of 44th Ave. and Wadsworth Blvd.    Our take on beer is simple – Use great ingredients and brew for flavor!  Rickoli’s respects the liquid in the glass and wants to help elevate beer to a refined drinking experience. That’s why we use the finest ingredients and brew in a leisurely manner. The beer tells us when it’s ready. We refuse to be a slave to production deadlines.  Wheat Ridge Colorado is a relaxed community just west of Denver with easy access from I-70. Wheat Ridge was one of the few remaining enclaves along the Front Range without a microbrewery. This changed in November 2012!  We are dedicated to providing our local neighborhood with a place to relax and have a pint close to home.    Our Brew master, Rick Abitbol has been professionally brewing award winning beers along the Front Range for over a decade.  Rick is respectful of beer styles and traditional brewing technique.  And has long been an innovator of style and not afraid to color outside the lines. He was one of the first brewers to explore the Black IPA which has since come to be regarded as a new style in judging guidelines.   We love hops! That’s not to say you won’t find any wonderfully malty creations on tap there are many, but what you will notice is the variety in our hoppy selections.  Be on the lookout for Rick’s special brews!    We’re Talking Much Better Beer!  We are pleased to feature a great selection of Gluten Reduced Beer.  All Rickoli’s brews that do not contain wheat are considered gluten reduced.  Making great craft beer more accessible to everyone.      Our glass rinsing stations insure a beer clean glass every time! We want you to drink beer not sanitizer! We hope you will stop by for a pint or two!","(303) 344-8988","2012","https://s3.amazonaws.com/brewerydbapi/brewery/0MtSfA/upload_ulX1Zv-icon.png","https://s3.amazonaws.com/brewerydbapi/brewery/0MtSfA/upload_ulX1Zv-medium.png","https://s3.amazonaws.com/brewerydbapi/brewery/0MtSfA/upload_ulX1Zv-large.png","Mon:  3:00pm - 9:00pm Tue:  3:00pm - 11:00pm Wed:  3:00pm - 11:00pm Thu:  3:00pm - 11:00pm Fri:  12:00pm - 12:00am Sat:  12:00pm - 12:00am Sun:  12:00pm - 9:00pm  Mon: 3:00 pm - 9:00 pm  Tue - Thu: 3:00 pm - 11:00 pm  Fri - Sat: 12:00 pm - 12:00 am  Sun: 12:00 pm - 9:00 pm","","",""
"1QFuku","Brewery Terra Firma","http://www.breweryterrafirma.com/","2013","N","verified","Verified","2012-01-03 02:41:33","2014-09-29 20:36:47","2959 Hartman Rd","Traverse City","Michigan","49685","44.7154521","-85.6354376","Y","N","N","Y","micro","Micro Brewery","US","United States","USA","","Brewery Terra Firma is unique in its approach as a brewery and as an agricultural destination. Through the integration of sustainable production methods, environmentally conscious waste management and innovative water recycling/reclamation techniques, we hope to become a model for breweries and agricultural destinations throughout the nation.    The BrewhouseThe brew house is an engineered mix of new and old technologies and techniques. Whole ingredients are used with traditional brewing equipment which is controlled by state of the art systems that manage temperature throughout the brewing process. These same systems harvest waste BTU's, capturing the energy that would normally be lost and reusing it to preheat ingredients, maintain product temperatures, and even heat the taproom via an in-floor heating system. Waste materials such as process water and spent grain are also captured and stored for fertilization and irrigation of our crops.    The prep table in the brewery quite often looks like the prep area in a fine restaurant. Fresh herbs, fruits and vegetables are a common sight, along with an amazing array of spices, roots and even flowers. Whole foods, fresh frozen or dried are used, artificial flavorings, extracts and coloring agents are not. The beer is unfiltered, its clarity being attained by the addition of natural clarifying agents and allowing ample time for the beer to condition.    Brewery Terra Firma began brewing operations in May of 2013, with the taproom opening to the public in July of the same year.","(231) 929-1600","2013","","","","Mon:  10:00am - 10:00pm Sun:  2:00pm - 9:00pm  10:00 AM to 10:00 PM Monday through Saturday, and from 2:00 PM to 9:00 PM on Sunday","","",""
"5K9U34","Brewery Vivant","http://www.breweryvivant.com/","2010","N","verified","Verified","2012-01-03 02:41:33","2014-09-29 20:36:47","925 Cherry Street SE","Grand Rapids","Michigan","49506","42.9597264","-85.6462576","Y","N","N","Y","micro","Micro Brewery","US","United States","USA","","Brewery Vivant is the realization of years of dreaming and much discussion of what a great brewery can be. What makes our brewery different from the rest is the way we approach our craft and operate our business. The core of Brewery Vivant can be found at the crossroads of three passions:    1. Our love of the tradition and artistic approach of the Belgian & French styles of beers    2. Devotion to using local sources for ingredients and running our business according to the three pillars of sustainability; Environmental Integrity, Social Equity, and Economic Viability    3. Sharing the experience of how beer and food can be paired to uplift the enjoyment of both","(616) 719-1604","2010","https://s3.amazonaws.com/brewerydbapi/brewery/LFkVMc/upload_gwKyCC-icon.png","https://s3.amazonaws.com/brewerydbapi/brewery/LFkVMc/upload_gwKyCC-medium.png","https://s3.amazonaws.com/brewerydbapi/brewery/LFkVMc/upload_gwKyCC-large.png","Mon:  3:00pm - 11:00pm Tue:  3:00pm - 11:00pm Wed:  3:00pm - 11:00pm Thu:  3:00pm - 11:00pm Fri:  3:00pm - 12:00am Sat:  11:00am - 12:00am Sun:  12:00pm - 9:00pm  Mon - Thu: 3:00 pm - 11:00 pm  Fri: 3:00 pm - 12:00 am  Sat: 11:00 am - 12:00 am  Sun: 12:00 pm - 9:00 pm","","",""
"B8auDl","Brewfist","http://www.brewfist.com/","","N","verified","Verified","2012-01-03 02:41:33","2014-08-04 11:03:09","Via Molinari, 5","","Codogno Lodi","26845","45.1610569","9.7009465","N","N","N","Y","micro","Micro Brewery","IT","Italy","ITA","380","","+39 0377 379814","","https://s3.amazonaws.com/brewerydbapi/brewery/dHae6w/upload_JV6ldy-icon.png","https://s3.amazonaws.com/brewerydbapi/brewery/dHae6w/upload_JV6ldy-medium.png","https://s3.amazonaws.com/brewerydbapi/brewery/dHae6w/upload_JV6ldy-large.png","","","",""
"nSJiNC","","http://www.brewfist.com/","","","verified","Verified","2012-01-03 02:41:33","2014-08-04 11:03:09","Via Molinari, 5","","Codogno Lodi","26845","45.1610569","9.7009465","Y","N","N","Y","micro","Micro Brewery","IT","Italy","ITA","380","","+39 0377 379814","","","","","","","",""
"hdsICV","Brewhouse","http://www.brewhousesb.com/","","N","verified","Verified","2012-01-03 02:41:33","2014-07-23 19:11:34","221 W Montecito St","Santa Barbara","California","93101","34.411903","-119.695692","Y","N","N","Y","brewpub","Brewpub","US","United States","USA","","Our Brewhouse Brews are handcrafted for your enjoyment right here on the premises. This ensures you of the freshest possible beer, as the brew you drink did not have to survive a journey from St. Louis, Chico, or even Paso Robles. In fact, it has never traveled more than a few feet. We brew in small, seven barrel (201 gallon) batches.","805-963-2739","","https://s3.amazonaws.com/brewerydbapi/brewery/AEmK8N/upload_jCTyXq-icon.png","https://s3.amazonaws.com/brewerydbapi/brewery/AEmK8N/upload_jCTyXq-medium.png","https://s3.amazonaws.com/brewerydbapi/brewery/AEmK8N/upload_jCTyXq-large.png","","","",""
"Jxb6Lw","Brewhouse at Eastlake","http://www.brewhouseeastlake.com/","","N","verified","Verified","2012-01-03 02:41:33","2014-07-23 19:11:34","871 Showroom Pl","Chula Vista","California","91914","32.653612","-116.954935","Y","N","Y","Y","brewpub","Brewpub","US","United States","USA","","","619-656-2739","","https://s3.amazonaws.com/brewerydbapi/brewery/mYV8Ho/upload_1F3sIM-icon.png","https://s3.amazonaws.com/brewerydbapi/brewery/mYV8Ho/upload_1F3sIM-medium.png","https://s3.amazonaws.com/brewerydbapi/brewery/mYV8Ho/upload_1F3sIM-large.png","","#102","",""
"Qi0V9u","Paper City Brewery Company","http://www.brewmasterjack.com/index.html","2011","N","verified","Verified","2012-01-03 02:41:33","2014-10-01 18:49:41","108 Cabot St","Holyoke","Massachusetts","01040","42.2011759","-72.610427","N","N","N","Y","micro","Micro Brewery","US","United States","USA","","Brewmaster Jack was started in 2011 by Northampton, MA resident Tyler Guilmette. While we currently only produce our flagship beer, Stray Dog Lager, we plan on releasing several more recipes in the future. Keep updated on the latest beer news by following us on Twitter or on our Facebook page.     As a company, we believe in buying locally. That's why we are currently working with Valley Malt in Hadley, Massachusetts (one of just two malting facilities east of Wisconsin and one of the only small-scale malthouses in the country) to incorporate local grains into our recipe. All of our beer produced in 2012 will include at least 25% organic, locally-malted grain with the eventual goal of improving to 100%.     Brewmaster Jack is proud to have our beer produced at Paper City Brewery in Holyoke, Massachusetts.","413-367-7190","","https://s3.amazonaws.com/brewerydbapi/brewery/khl03j/upload_IMVy63-icon.png","https://s3.amazonaws.com/brewerydbapi/brewery/khl03j/upload_IMVy63-medium.png","https://s3.amazonaws.com/brewerydbapi/brewery/khl03j/upload_IMVy63-large.png","","","",""
"wHJuVN","Brewmasters Restaurant and Brewery South","","1987","N","verified","Verified","2012-01-03 02:41:33","2014-07-23 19:11:34","4017 80th Street","Kenosha","Wisconsin","53142","42.55827","-87.856906","Y","N","Y","Y","micro","Micro Brewery","US","United States","USA","","","","1987","","","","","","",""
"Yb2ieo","Brewmasters Tavern","http://www.thebrewmasterstavern.com/","","N","verified","Verified","2012-01-03 02:41:33","2014-07-23 19:11:34","4 Main St","Williamsburg","Massachusetts","01096","42.3924711","-72.7300105","Y","N","N","Y","brewpub","Brewpub","US","United States","USA","","We are a family owned restaurant attached to Opa Opa Brewing Co.","413-268-7741","","","","","","","",""
"AulWoF","Brewpub-on-the-Green","","1988","N","verified","Verified","2012-01-03 02:41:33","2014-07-23 19:11:34","3350 Stevenson Boulevard","Fremont","California","94538","37.545896","-121.972177","Y","N","Y","Y","micro","Micro Brewery","US","United States","USA","","","","1988","","","","","","",""
"u8Rbm0","Airdrie","http://brewsters.ca/locations/200-3-stonegate/","","N","verified","Verified","2012-01-03 02:41:33","2014-09-29 20:36:49","200 3 Stonegate Dr. N.W.","Airdrie","Alberta","T4B 0N2","51.3009224","-114.0141165","N","N","N","Y","brewpub","Brewpub","CA","Canada","CAN","124","Each one of Brewsters handcrafted ales and lagers is brewed using only the finest ingredients – barley from Alberta and imported specialty grains from Great Britain. Each brew is produced in small batches by skilled brewers. We brew each brand frequently so they’re always fresh.","403-945-2739","","https://s3.amazonaws.com/brewerydbapi/brewery/7ffL9U/upload_bWU5aE-icon.png","https://s3.amazonaws.com/brewerydbapi/brewery/7ffL9U/upload_bWU5aE-medium.png","https://s3.amazonaws.com/brewerydbapi/brewery/7ffL9U/upload_bWU5aE-large.png","Mon:  11:00am - 12:00am Sun:  11:00am - 12:00am Tue:  11:00am - 1:00am Wed:  11:00am - 1:00am Thu:  11:00am - 1:00am Fri:  11:00am - 1:00am Sat:  11:00am - 1:00am  Sunday & Monday: 11:00am – 12:00am  Tuesday to Saturday: 11:00am – 1:00am","","",""
"WSAPvR","Castledowns","http://brewsters.ca/locations/15327-castledowns-road/","","","verified","Verified","2012-01-03 02:41:33","2014-09-29 20:36:50","15327 Castledowns Road","Edmonton","Alberta","T5X 6C3","53.6161732","-113.5150086","N","N","N","Y","brewpub","Brewpub","CA","Canada","CAN","124","","780-425-4677","","","","","Mon:  11:00am - 12:00am Tue:  11:00am - 1:00am Wed:  11:00am - 1:00am Thu:  11:00am - 1:00am Fri:  11:00am - 1:00am Sat:  11:00am - 1:00am Sun:  10:00am - 12:00am  Monday: 11:00am – 12:00am  Tuesday to Thursday: 11:00am – 1:00am  Friday & Saturday: 11:00am – 1:00am  Sunday: 10:00am – 12:00am","","",""
"8ltE4s","Century Park","http://brewsters.ca/locations/2335-111-street/","","","verified","Verified","2012-01-03 02:41:33","2014-09-29 20:36:51","2335 111 Street","Edmonton","Alberta","T6J 5E5","53.4553349","-113.516099","N","N","N","Y","brewpub","Brewpub","CA","Canada","CAN","124","","780-429-4677","","","","","Mon:  11:00am - 12:00am Sun:  11:00am - 12:00am Tue:  11:00am - 1:00am Wed:  11:00am - 1:00am Thu:  11:00am - 1:00am Fri:  11:00am - 1:00am Sat:  11:00am - 1:00am  Sunday & Monday: 11:00am – 12:00am  Tuesday to Saturday: 11:00am – 1:00am","","",""
"l5c2EJ","Crowfoot","http://brewsters.ca/locations/25-crowfoot-terrace-n-w/","","","verified","Verified","2012-01-03 02:41:33","2014-09-29 20:36:52","25 Crowfoot Terrace N.W.","Calgary","Alberta","T3G 4J8","51.1269891","-114.19933","N","N","N","Y","brewpub","Brewpub","CA","Canada","CAN","124","","403-208-2739","","","","","Sun:  11:00am - 12:00am Fri:  11:00am - 1:00am Sat:  11:00am - 1:00am  Sunday to Thursday: 11:00am – 12:00am  Friday & Saturday: 11:00am – 1:00am","","",""
"NPKqNk","Eleventh Avenue","http://brewsters.ca/locations/804-2-st-sw/","","","verified","Verified","2012-01-03 02:41:33","2014-09-29 20:36:53","834 11 Avenue S.W.","Calgary","Alberta","T2R 0E5","51.0428907","-114.0811098","N","N","N","Y","brewpub","Brewpub","CA","Canada","CAN","124","","403-265-2739","","","","","Mon:  11:00am - 12:00am Sun:  11:00am - 12:00am Tue:  11:00am - 1:00am Wed:  11:00am - 1:00am Thu:  11:00am - 1:00am Fri:  11:00am - 2:00am Sat:  11:00am - 2:00am  Sunday & Monday: 11:00am – 12:00am  Tuesday to Thursday: 11:00am – 1:00am  Friday & Saturday: 11:00am – 2:00am","","",""
"zj3eXB","Foothills","http://brewsters.ca/locations/5519-53rd-street-s-e/","","","verified","Verified","2012-01-03 02:41:33","2014-07-23 19:11:34","5519 53rd Street S.E.","Calgary","Alberta","T2C 4V1","51.003304","-113.9566984","N","N","N","Y","brewpub","Brewpub","CA","Canada","CAN","124","","403-723-2739","","","","","Monday & Wednesday: 11:00am – 9:00pm  Tuesday & Thursday: 11:00am – 10:00pm  Friday: 11:00am – 12:00am  Saturday: 11:00am – 11:00pm  Sunday: 11:00am – 9:00pm","","",""
"c2mSgc","Lake Bonavista","http://brewsters.ca/locations/176-755-lake-bonavista-drive-s-w/","","","verified","Verified","2012-01-03 02:41:33","2014-07-23 19:11:34","176 755 Lake Bonavista Drive S.W","Calgary","Alberta","T2J 0N3","50.9424531","-114.047124","N","N","N","Y","brewpub","Brewpub","CA","Canada","CAN","124","","403-225-2739","","","","","Sunday, Monday, Wednesday: 11:00am – 12:00am  Tuesday, Thursday to Saturday: 11:00am – 1:00am","","",""
"EMVGq3","Landmark","http://brewsters.ca/","","","deleted","Deleted","2012-01-03 02:41:33","2014-07-23 19:11:34","4180 Albert Street","Regina","Saskatchewan","S4S 3R8","50.4123178","-104.6182284","N","N","N","N","brewpub","Brewpub","CA","Canada","CAN","124","","306-757-2739","","","","","","","",""
"qgE4zU","Mckenzie Towne","http://brewsters.ca/locations/100-11-mckenzie-towne-blvd-s-e/","","","verified","Verified","2012-01-03 02:41:33","2014-07-23 19:11:34","100 11 Mckenzie Towne Blvd. S.E.","Calgary","Alberta","T2Z 0S8","50.915527","-113.9622626","N","N","N","Y","brewpub","Brewpub","CA","Canada","CAN","124","","403-243-2739","","","","","Sunday & Monday: 11:00am – 12:00am  Tuesday to Saturday: 11:00am – 1:00am","","",""
"Szwt8v","Meadowlark","http://brewsters.ca/locations/15820-87th-avenue/","","","verified","Verified","2012-01-03 02:41:33","2014-07-23 19:11:34","15820 87th Avenue","Edmonton","Alberta","T5R 5W9","53.5195529","-113.5948204","N","N","N","Y","brewpub","Brewpub","CA","Canada","CAN","124","","780-421-4677","","","","","Monday: 11:00am – 12:00am  Tuesday to Saturday: 11:00am – 1:00am  Sunday: 11:00am – 12:00am","","",""
"5JfhIM","Normanview","http://brewsters.ca/locations/480-north-mccarthy-boulevard/","","","verified","Verified","2012-01-03 02:41:33","2014-07-23 19:11:34","480 North McCarthy Blvd","Regina","Saskatchewan","S4R 7M2","50.4839194","-104.664093","N","N","N","Y","brewpub","Brewpub","CA","Canada","CAN","124","","306-522-2739","","","","","Monday, Wednesday: 11am – 1:30am  Thursday to Friday: 11am – 2:00am  Saturday: 9:00am – 2:00am  Sunday: 9:00am – 12:00 midnight","","",""
"hdOVRn","Oliver Square","http://brewsters.ca/locations/11620-104th-avenue/","","","verified","Verified","2012-01-03 02:41:33","2014-07-23 19:11:34","11620 104th Avenue","Edmonton","Alberta","T5K 2T7","53.5463272","-113.5232711","N","N","N","Y","brewpub","Brewpub","CA","Canada","CAN","124","","780-482-4677","","","","","Monday: 11:00am – 12:00am  Tuesday to Thursday: 11:00am – 1:00am  Friday & Saturday: 11:00am – 2:00am  Sunday: 11:00am – 12:00am","","",""
"Jx7JbE","Summerside","http://brewsters.ca/locations/1140-91-street-sw/","","","verified","Verified","2012-01-03 02:41:33","2014-07-23 19:11:34","1140 91 Street SW","Edmonton","Alberta","T6X 0P2","53.4235218","-113.4741277","N","N","N","Y","brewpub","Brewpub","CA","Canada","CAN","124","","780-424-4677","","","","","Monday: 11:00am – 12:00am  Sunday to Thursday: 11:00am – 12:00am  Friday & Saturday: 11:00am – 1:00am","","",""
"wGq7kf","Victoria East","http://brewsters.ca/locations/1832-victoria-avenue-eas/","","","verified","Verified","2012-01-03 02:41:33","2014-07-23 19:11:34","1832 Victoria Avenue East","Regina","Saskatchewan","S4N 7K3","50.4472063","-104.5596387","N","N","N","Y","brewpub","Brewpub","CA","Canada","CAN","124","","306-761-1500","","","","","Monday – Wednesday: 11am – 1:30am  Thursday – Saturday: 11am – 2:00am  Sunday: 12:00 noon – 12:00 midnight","","",""
"xdWZOA","Landmark","http://brewsters.ca/locations/4180-albert-street/","","","verified","Verified","2012-01-03 02:41:33","2014-07-23 19:11:34","4189 Albert Street","Regina","Saskatchewan","S4S 3R9","50.412581","-104.617923","Y","N","N","Y","brewpub","Brewpub","CA","Canada","CAN","124","","306-757-2739","","","","","Monday – Wednesday: 11am – 1:30am  Thursday – Saturday: 11am – 2:00am  Sunday: 9:30am – 12:00 midnight","","",""
"nEUKxg","Brewzzi Boca Raton","http://www.brewzzi.com/","","N","verified","Verified","2012-01-03 02:41:33","2014-07-23 19:11:34","2222 Glades Rd","Boca Raton","Florida","33431","26.3680586","-80.1254459","N","N","N","Y","brewpub","Brewpub","US","United States","USA","","Brewzzi is famous for its enormous portions of quality Italian and American favorites. Enjoy brick oven pizza, pasta, oversized salads, trademark sandwiches, Angus hamburgers, fresh fish and more. With over 70 items on the menu, there's something to please every palate. Even the kids, who eat free every Monday and Tuesday... And don't forget the brewery! Brewzzi's brewed-on-site lagers and ales have won gold and silver medals at the Great American Beer Festival. And of course they're half-price, along with featured Premium brands, during the Brewzzi Happy Hour, Monday-Friday from 3pm-6:30pm and ALL DAY Sunday.","561-392-2739","","https://s3.amazonaws.com/brewerydbapi/brewery/q0if4K/upload_X0d6bg-icon.png","https://s3.amazonaws.com/brewerydbapi/brewery/q0if4K/upload_X0d6bg-medium.png","https://s3.amazonaws.com/brewerydbapi/brewery/q0if4K/upload_X0d6bg-large.png","","Glades Plaza","",""
"NHSaAZ","Brewzzi CityPlace","http://www.brewzzi.com/","","","verified","Verified","2012-01-03 02:41:33","2014-07-23 19:11:34","700 S Rosemary Ave","West Palm Beach","Florida","33401","26.7073773","-80.0568987","Y","N","N","Y","brewpub","Brewpub","US","United States","USA","","","561.366.9753","","","","","","Suite 212","",""
"PYD977","Breznak","http://drinksunion.qbizm.cz/de/pages/vyrobky_p_breznak.htm","","N","verified","Verified","2012-01-03 02:41:33","2014-07-23 19:11:34","","","","","","","Y","N","N","Y","micro","Micro Brewery","CZ","Czech Republic","CZE","203","","","","","","","","","",""
"1rvxGY","Briar Creek Brewing Co","http://www.briarcreekbrewery.com/","","N","verified","Verified","2012-01-03 02:41:33","2014-07-23 19:11:34","1709 260th St","Janesville","Iowa","50647","42.674064","-92.412992","Y","N","N","Y","micro","Micro Brewery","US","United States","USA","","","","","","","","","","",""
"p9zlLd","BriarScratch Brewing","http://www.briarscratchbrewing.com","","N","verified","Verified","2012-01-03 02:41:33","2014-07-23 19:11:34","544 Bursby Branch Rd.","Gallatin","Tennessee","37066","36.472571","-86.5215769","Y","Y","N","Y","micro","Micro Brewery","US","United States","USA","","Mission? To start both a unique farm style brewery in rural Middle TN and to establish Sumner County's first ever brewery! The goal is to bring fresh, local beer to Sumner County and Middle Tennessee!The mission is to focus on local sources, fresh ingredients, local community events, and a variety of beer styles for all of you fine folks to enjoy! Craft Beer is an exploding industry that has taken America a century to rebuild after prohibition occurred. People want local and we're gonna bring it! Briarscratch Brewing is underway in the planning stages to bring Sumner County its very own delicious craft beer using the best water, malt, hops, yeast, and whatever else we might want to throw into the kettle for a unique twist. Coming 2014!","","","https://s3.amazonaws.com/brewerydbapi/brewery/V7rcMs/upload_Sgtk0b-icon.png","https://s3.amazonaws.com/brewerydbapi/brewery/V7rcMs/upload_Sgtk0b-medium.png","https://s3.amazonaws.com/brewerydbapi/brewery/V7rcMs/upload_Sgtk0b-large.png","","","",""
"W6h1pn","Brice's Brewing Company","","","N","verified","Verified","2012-01-03 02:41:33","2014-10-29 12:35:34","","Benson","North Carolina","","35.3821067","-78.548621","N","Y","N","Y","micro","Micro Brewery","US","United States","USA","","We are purveyors of truly inspired beer, made with the freshest ingredients and the utmost care for people who seek fine craft brew at a reasonable price.","","","https://s3.amazonaws.com/brewerydbapi/brewery/xR7GYA/upload_YWqxYA-icon.png","https://s3.amazonaws.com/brewerydbapi/brewery/xR7GYA/upload_YWqxYA-medium.png","https://s3.amazonaws.com/brewerydbapi/brewery/xR7GYA/upload_YWqxYA-large.png","","","",""
"eBelPz","Brick Brewing","http://www2.brickbeer.com/","1984","N","verified","Verified","2012-01-03 02:41:33","2014-07-23 19:11:34","400 Bingemans Centre Drive","Kitchener","Ontario","N2B 3X9","43.470829","-80.4535224","N","N","N","N","office","Office","CA","Canada","CAN","124","","1-519-367-2995","","","","","","","",""
"pNatE6","Brick Brewery","http://www.brickbeer.com/","","","verified","Verified","2012-01-03 02:41:33","2014-07-23 19:11:34","181 King Street South","Waterloo","Ontario","N2J 1P7","43.4605412","-80.5198564","Y","N","N","Y","micro","Micro Brewery","CA","Canada","CAN","124","","1-519-576-9100","1984","","","","Mon-Sat 10 am - 7 pm  Sunday 11 am - 6 pm","","",""
"rYqq2P","Brick Street Brewing Company","http://www.brickstreetbrewing.com/","2013","N","verified","Verified","2012-01-03 02:41:33","2014-07-23 19:11:34","506 Walker St.,","Woodbine","Iowa","51579","41.7371213","-95.7020307","Y","N","N","Y","micro","Micro Brewery","US","United States","USA","","Brick Street Brewing Company is a locally owned and operated 1 BBL microbrewery located just off Highway 30 in the heart of historic Woodbine, Iowa. We serve up fresh, tasty Iowa craft beer in a fun and relaxing atmosphere. We hold true to the value of brewing quality, handcrafted beer while having fun brewing it, sharing it and drinking it.","(712) 592-1894","2013","https://s3.amazonaws.com/brewerydbapi/brewery/xLOOss/upload_IT3ctU-icon.png","https://s3.amazonaws.com/brewerydbapi/brewery/xLOOss/upload_IT3ctU-medium.png","https://s3.amazonaws.com/brewerydbapi/brewery/xLOOss/upload_IT3ctU-large.png","Thu: 4:00 pm - 10:00 pm  Fri - Sat: 4:00 pm - 12:00 am","Ste. B","",""
"GVNZZQ","Brickhouse Brewery & Restaurant","http://brickhousebrewery.com/","","N","verified","Verified","2012-01-03 02:41:33","2014-07-23 19:11:34","67 West Main Street","Patchogue","New York","11772","40.7658085","-73.0167194","Y","N","N","Y","brewpub","Brewpub","US","United States","USA","","The BrickHouse Brewery building, at the corner of Havens Avenue and Main Street, is the oldest commercial building in Patchogue. It was built around 1850 as a dry goods store, and was operated by John S. Havens until 1914, when it was purchased by James G. Shand.","631-447-BEER","","https://s3.amazonaws.com/brewerydbapi/brewery/fuWdQt/upload_8fuNav-icon.png","https://s3.amazonaws.com/brewerydbapi/brewery/fuWdQt/upload_8fuNav-medium.png","https://s3.amazonaws.com/brewerydbapi/brewery/fuWdQt/upload_8fuNav-large.png","","","",""
"i9pq7J","Brickside Brewery","http://bricksidebrewery.com/","2012","N","verified","Verified","2012-01-03 02:41:33","2014-07-23 19:11:34","64 Gratiot St.","Copper Harbor","Michigan","49918","47.4677795","-87.8876068","Y","N","N","Y","micro","Micro Brewery","US","United States","USA","","Copper Harbor's first and only microbrewery, and the first in Keweenaw county in over a hundred years. Bringing hand crafted beer to you is our goal while infusing it with the fun and beauty of the surrounding area.    We'll have our beer on tap, growlers to go, and bottle sales from the cooler ( Sometime in late June early July the bottles will be available). You'll also be able to buy it in stores through out the area ( Once we get the labels approved, again hoping to get distribution going by July ). Shirts, glasses, stickers, and growlers will be available for purchase in the brewery","(906) 289-4772","2012","https://s3.amazonaws.com/brewerydbapi/brewery/O7hh8Y/upload_uZ5Xee-icon.png","https://s3.amazonaws.com/brewerydbapi/brewery/O7hh8Y/upload_uZ5Xee-medium.png","https://s3.amazonaws.com/brewerydbapi/brewery/O7hh8Y/upload_uZ5Xee-large.png","Thu: 4:00 pm - 10:00 pm  Fri - Sat: 4:00 pm - 11:00 pm  Sun: 4:00 pm - 10:00 pm","","",""
"sp6Nir","BrickStone Restaurant & Brewery","http://www.brickstonebrewery.com/","2006","N","verified","Verified","2012-01-03 02:41:33","2014-07-23 19:11:34","557 William Latham Drive","Bourbonnais","Illinois","60914","41.1626245","-87.8815744","Y","N","N","Y","brewpub","Brewpub","US","United States","USA","","BrickStone is not just known for their delicious cuisine, but also for their handcrafted brews made right onsite. Our food and our beer are all made with the freshest and finest ingredients.","815-936-9277","","https://s3.amazonaws.com/brewerydbapi/brewery/wN2mAf/upload_MzGjGm-icon.png","https://s3.amazonaws.com/brewerydbapi/brewery/wN2mAf/upload_MzGjGm-medium.png","https://s3.amazonaws.com/brewerydbapi/brewery/wN2mAf/upload_MzGjGm-large.png","","","",""
"V8pBsI","Bricktown Brewery","http://www.bricktownbrewery.com/","1992","N","verified","Verified","2012-01-03 02:41:33","2014-07-23 19:11:34","299 Main Street","Dubuque","Iowa","52001","42.496499","-90.665173","N","N","Y","Y","micro","Micro Brewery","US","United States","USA","","In November 1992, the Bricktown Brewery opened its doors, ushering in a new golden age of urban dining to the OKC scene. Nearly 20 years later, the Brewery has been adrenalized with a new look, new menu and new focus on delivering great food, great beer and a great experience to the citizens of Oklahoma City.    The building which Bricktown Brewery calls home was once a candy factory, and they say that ghosts of the Oompa-Loompas who are buried in the basement haunt guests who don’t leave a good tip. So be aware…and act accordingly.","1-563-582-0608","","https://s3.amazonaws.com/brewerydbapi/brewery/ynZSec/upload_4b8QwZ-icon.png","https://s3.amazonaws.com/brewerydbapi/brewery/ynZSec/upload_4b8QwZ-medium.png","https://s3.amazonaws.com/brewerydbapi/brewery/ynZSec/upload_4b8QwZ-large.png","","","",""
"gNckW3","Edmond","http://www.bricktownbrewery.com/","","","verified","Verified","2012-01-03 02:41:33","2014-07-23 19:11:34","840 W. Danforth Rd","Edmond","Oklahoma","73003","35.6667621","-97.4950028","N","N","N","Y","brewpub","Brewpub","US","United States","USA","","","(405) 265-BREW","","","","","Monday - Thursday 11am - 12am  Friday& Saturday 11am - 1 am  Sunday 11am-10 pm","","",""
"IhLYfU","Downtown OKC","http://www.bricktownbrewery.com/","","","verified","Verified","2012-01-03 02:41:33","2014-07-23 19:11:34","One North Oklahoma Avenue","Oklahoma City","Oklahoma","73104","35.4667607","-97.5108091","N","N","N","Y","micro","Micro Brewery","US","United States","USA","","","(405) 232-2739","","","","","Monday - Thursday 11am - 10pm,  BAR stays open until 11pm  Friday& Saturday 11am - 11pm,  BAR stays open until 1am  Sunday 11am-9pm","","",""
"v14Mov","Remington Park","http://www.bricktownbrewery.com/","","","verified","Verified","2012-01-03 02:41:33","2014-07-23 19:11:34","One Remington Place","Oklahoma City","Oklahoma","73111","35.5274027","-97.4712053","N","N","N","Y","brewpub","Brewpub","US","United States","USA","","","(405) 419-4449","","","","","Sunday - Wednesday 11am-10pm  Thursday - Saturday 11am - 11pm","","",""
"XKnAyM","Shawnee","http://www.bricktownbrewery.com/","","","verified","Verified","2012-01-03 02:41:33","2014-07-23 19:11:34","4845 North Kickapoo","Shawnee","Oklahoma","74801","35.381501","-96.929147","Y","N","N","Y","brewpub","Brewpub","US","United States","USA","","","(405) 273-3301","","","","","Monday - Thursday 11am - 11pm  Friday& Saturday 11am - 12pm  Sunday 11am-9pm","","",""
"7SY01j","Bricktown Brewery (OKC)","http://www.bricktownbrewery.com/","1992","N","verified","Verified","2012-01-03 02:41:33","2014-07-23 19:11:34","1 N Oklahoma Ave","Oklahoma City","Oklahoma","73104","35.4667607","-97.5108091","Y","N","N","Y","brewpub","Brewpub","US","United States","USA","","Bricktown Brewery opened in October 1992, making history, quality beers, and great food. This started what has become the most unique setting and entertainment establishment in Oklahoma City!    In keeping with the Brewery’s standard of providing our patrons with an exceptional experience, we have transformed the historical turn-of-the century building into a great place to find award winning beers, great food, and plenty of fun for all ages!","405-232-2739","1992","https://s3.amazonaws.com/brewerydbapi/brewery/ANqPO1/upload_ZJu35K-icon.png","https://s3.amazonaws.com/brewerydbapi/brewery/ANqPO1/upload_ZJu35K-medium.png","https://s3.amazonaws.com/brewerydbapi/brewery/ANqPO1/upload_ZJu35K-large.png","","","",""
"bSzuQk","Barrel House","http://www.bricktownebeer.com/","2011","N","verified","Verified","2012-01-03 02:41:33","2014-07-23 19:11:34","44 South Central","Medford","Oregon","97501","42.3256491","-122.8719069","Y","N","N","Y","brewpub","Brewpub","US","United States","USA","","BricktownE Brewing Company's Barrel House in downtown Medford is quickly becoming the local favorite with 8 different beers on draft, soon to be 10, and very soon to be tripling in size.    BricktownE focus's on English style beers and especially loves to barrel age their beers in local wine barrels, as the local wine scene is getting quite extensive in the Rogue Valley.","541-973-2377","2011","https://s3.amazonaws.com/brewerydbapi/brewery/y1NbYk/upload_ktXcrO-icon.png","https://s3.amazonaws.com/brewerydbapi/brewery/y1NbYk/upload_ktXcrO-medium.png","https://s3.amazonaws.com/brewerydbapi/brewery/y1NbYk/upload_ktXcrO-large.png","Mondays : 2pm-10pm  Tuesdays : 2pm-10pm  Wednesday-Saturday : 1130am-10pm  Sundays : 12pm-6pm","","",""
"jmGoBA","Brickyard Brewing Co.","http://www.brickyardbrewing.com/","2011","N","verified","Verified","2012-01-03 02:41:33","2014-07-23 19:11:34","5817 238th St SE","Woodinville","Washington","98072","47.7817217","-122.153799","Y","N","N","Y","micro","Micro Brewery","US","United States","USA","","""Not Just Another Beer On The Wall""","425-483-2337","2011","https://s3.amazonaws.com/brewerydbapi/brewery/4eAHNC/upload_AgiKcC-icon.png","https://s3.amazonaws.com/brewerydbapi/brewery/4eAHNC/upload_AgiKcC-medium.png","https://s3.amazonaws.com/brewerydbapi/brewery/4eAHNC/upload_AgiKcC-large.png","Thu: 2:00 pm - 8:00 pm  Fri: 2:00 pm - 9:00 pm  Sat: 1:00 pm - 8:00 pm  Sun: 1:00 pm - 7:00 pm","#3","",""
"QEQbK2","Bridge 99 Brewery","","","N","verified","Verified","2012-01-03 02:41:33","2014-07-23 19:11:34","61123 Tapadera","Bend","Oregon","97702","44.019714","-121.310807","Y","N","N","N","nano","Nano Brewery","US","United States","USA","","Bridge 99 Brewery is a small batch craft nano brewery that is soon to launch in Bend Oregon. Watch for us at Wubba's BBQ!","(541) 280-1690","","https://s3.amazonaws.com/brewerydbapi/brewery/QQM7PK/upload_7gnMc9-icon.png","https://s3.amazonaws.com/brewerydbapi/brewery/QQM7PK/upload_7gnMc9-medium.png","https://s3.amazonaws.com/brewerydbapi/brewery/QQM7PK/upload_7gnMc9-large.png","","","",""
"spoQ0c","Bridge and Tunnel Brewery","http://www.bridgeandtunnelbrewery.com/","2012","N","verified","Verified","2012-01-03 02:41:33","2014-07-23 19:11:34","","Maspeth","New York","11378","40.7294018","-73.9065883","Y","N","N","Y","nano","Nano Brewery","US","United States","USA","","Nano scale micro brewery out of Queens New York.","(347) 392-8593","2012","https://s3.amazonaws.com/brewerydbapi/brewery/nR7tKj/upload_O2nXzl-icon.png","https://s3.amazonaws.com/brewerydbapi/brewery/nR7tKj/upload_O2nXzl-medium.png","https://s3.amazonaws.com/brewerydbapi/brewery/nR7tKj/upload_O2nXzl-large.png","","","",""
"M5zcKb","Bridge Brew Works","http://www.bridgebrewworks.com/","2010","N","verified","Verified","2012-01-03 02:41:33","2014-07-23 19:11:34","207 Keller Ave","Fayetteville","West Virginia","25840","38.0578763","-81.1004918","Y","N","N","Y","micro","Micro Brewery","US","United States","USA","","Ken Linch and Nathan Herrold founded Bridge Brew Works to bring quality craft brewed beer to restaurants and pubs in West Virginia and beyond. They have 32 years of combined experience in home and commercial brewing and enjoy creating full flavored beers that honor tradition.    We have a goal to make a lasting connection with everyone in West Virginia who enjoys craft brewed beer.","740-816-7055","2010","","","","","","",""
